{"version": 0.6, "generator": "Overpass API 0.7.62.11 87bfad18", "osm3s": {"timestamp_osm_base": "2026-05-10T10:34:44Z", "copyright": "The data included in this document is from www.openstreetmap.org. The data is made available under ODbL."}, "elements": [{"type": "node", "id": 271308, "lat": 50.9279169, "lon": -1.7077055, "tags": {"archaeological_site": "tumulus", "historic": "archaeological_site", "name": "Tumulus"}}, {"type": "node", "id": 2433319, "lat": 50.6717429, "lon": -1.5592568, "tags": {"historic": "archaeological_site", "name": "Headon Warren Barrow", "tourism": "attraction"}}, {"type": "node", "id": 4118137, "lat": 52.1354363, "lon": -0.4633704, "tags": {"access": "yes", "archaeological_site": "fortification", "historic": "archaeological_site", "historic:civilization": "medieval", "name": "Bedford Castle", "wikidata": "Q4879112", "wikipedia": "en:Bedford Castle"}}, {"type": "node", "id": 8608042, "lat": 52.1395831, "lon": -0.3751791, "tags": {"addr:city": "Willington", "addr:country": "GB", "addr:housenumber": "7", "addr:postcode": "MK44 3QG", "addr:street": "Chapel Lane", "amenity": "cafe", "fhrs:authority": "Bedford", "fhrs:id": "111266", "fhrs:local_authority_id": "40752", "historic": "archaeological_site", "name": "Danish Camp", "website": "https://www.danishcamp.co.uk/"}}, {"type": "node", "id": 18377650, "lat": 52.6159249, "lon": -0.6788319, "tags": {"historic": "archaeological_site", "leisure": "maze", "name": "Wing Maze", "note": "http://www.indigogroup.co.uk/edge/Mazes.htm"}}, {"type": "node", "id": 21042301, "lat": 51.9897381, "lon": -0.1809379, "tags": {"civilization": "roman", "historic": "archaeological_site", "name": "Roman Settlement", "source": "knowledge"}}, {"type": "node", "id": 24963101, "lat": 50.8096423, "lon": 0.1879342, "tags": {"historic": "archaeological_site", "man_made": "geoglyph", "name": "Long Man of Wilmington", "ref:GB:nhle": "1002293", "tourism": "attraction", "wikidata": "Q1869405"}}, {"type": "node", "id": 26530831, "lat": 52.1587892, "lon": 0.1816366, "tags": {"historic": "archaeological_site", "name": "Wandlebury Ring (Iron Age Hill Fort)"}}, {"type": "node", "id": 26976795, "lat": 52.2613954, "lon": 0.1880402, "tags": {"created_by": "JOSM", "historic": "archaeological_site", "name": "Car Dyke", "tourism": "attraction", "wikidata": "Q17641688"}}, {"type": "node", "id": 27234553, "lat": 50.6561979, "lon": -1.4253431, "tags": {"alt_name": "The Long Stone", "historic": "archaeological_site", "loc_name": "Mottistone Longstone", "name": "The Longstone", "tourism": "attraction", "wikidata": "Q7748354", "wikipedia": "en:The Longstone, Mottistone"}}, {"type": "node", "id": 28932430, "lat": 51.1112289, "lon": -2.3392111, "tags": {"archaeological_site": "fortification", "fortification_type": "hill_fort", "historic": "archaeological_site", "name": "Park Hill", "name:ru": "\u041f\u0430\u0440\u043a\u043e\u0432\u044b\u0439 \u0445\u043e\u043b\u043c", "wikidata": "Q17643338"}}, {"type": "node", "id": 29269186, "lat": 50.8924976, "lon": -0.753767, "tags": {"ele": "206", "historic": "archaeological_site", "name": "The Trundle", "natural": "peak", "source": "npe", "wikidata": "Q7847949", "wikipedia": "en:The Trundle"}}, {"type": "node", "id": 30000437, "lat": 53.4186225, "lon": -2.0167551, "tags": {"archaeological_site": "tumulus", "historic": "archaeological_site", "source": "npe"}}, {"type": "node", "id": 30000438, "lat": 53.4142841, "lon": -2.0193363, "tags": {"archaeological_site": "tumulus", "historic": "archaeological_site", "source": "npe"}}, {"type": "node", "id": 30783024, "lat": 50.8917632, "lon": -1.9675755, "tags": {"created_by": "JOSM", "historic": "archaeological_site", "name": "Knowlton Rings", "wikidata": "Q15148617"}}, {"type": "node", "id": 32342998, "lat": 50.8550745, "lon": -2.3425248, "tags": {"created_by": "JOSM", "historic": "archaeological_site", "is_in": "Dorset, England", "name": "Bulbarrow Hill"}}, {"type": "node", "id": 87356178, "lat": 50.8616232, "lon": 0.0509574, "tags": {"historic": "archaeological_site", "name": "The Caburn", "natural": "peak", "source": "Bing", "wikidata": "Q12062109", "wikipedia": "en:Mount Caburn"}}, {"type": "node", "id": 101397008, "lat": 51.998967, "lon": -4.7700299, "tags": {"archaeological_site": "megalith", "heritage": "2", "heritage:operator": "cadw", "historic": "archaeological_site", "historic:civilization": "prehistoric", "historic:era": "neolithic", "historic:period": "stone-age", "mapillary": "787315452145493", "megalith_type": "dolmen", "name": "Dolmen / Cromlech", "name:cy": "Cromlech", "name:en": "Dolmen", "ref:cadw": "PE008", "source": "survey", "wikidata": "Q1738425", "wikimedia_commons": "File:DMPentreIfanSide.JPG", "wikipedia": "en:Pentre Ifan"}}, {"type": "node", "id": 112311575, "lat": 53.1349949, "lon": -2.6372061, "tags": {"archaeological_site": "tumulus", "freemap_note": "Tumulus", "historic": "archaeological_site", "name": "Robin Hood's Tump"}}, {"type": "node", "id": 130223836, "lat": 51.4140926, "lon": -0.181685, "tags": {"historic": "archaeological_site", "name": "Merton Priory Chapter House"}}, {"type": "node", "id": 193715284, "lat": 51.2021604, "lon": -0.406891, "tags": {"access": "private", "archaeological_site": "fortification", "description": "Motte and Bailey in someone's garden", "fortification_type": "motte", "historic": "archaeological_site", "historic:civilization": "medieval", "name": "Abinger Motte", "ref:canmore": "291617"}}, {"type": "node", "id": 196118629, "lat": 52.5081528, "lon": -1.7922637, "tags": {"description": "Motte", "historic": "archaeological_site", "name": "Pimple Hill", "source": "NPE", "source:name": "knowledge"}}, {"type": "node", "id": 255114776, "lat": 51.3454952, "lon": 0.6246412, "tags": {"historic": "archaeological_site", "inscription": "Site now buried for preservation", "name": "Roman Villa (Site of)", "source": "npe"}}, {"type": "node", "id": 255116831, "lat": 51.3198925, "lon": 0.5030031, "tags": {"alt_name": "Kit's Coty;Kits Coty House", "archaeological_site": "megalith", "historic": "archaeological_site", "historic:civilization": "prehistoric", "historic:era": "neolithic", "historic:period": "stone-age", "megalith_type": "dolmen", "name": "Kit's Coty House", "source": "npe", "website": "https://www.megalithic.co.uk/article.php?sid=358", "wikidata": "Q4222497", "wikipedia": "en:Kit's Coty House"}}, {"type": "node", "id": 255122716, "lat": 51.3003157, "lon": 0.5250573, "tags": {"historic": "archaeological_site", "name": "Boxley Abbey", "source": "npe", "wikidata": "Q895699", "wikipedia": "en:Boxley Abbey"}}, {"type": "node", "id": 255173948, "lat": 53.3291918, "lon": -1.6118875, "tags": {"archaeological_site": "fortification", "ele": "370", "historic": "archaeological_site", "historic:civilization": "iron-age", "name": "Carl Wark", "natural": "peak", "wikidata": "Q5040936", "wikipedia": "en:Carl Wark"}}, {"type": "node", "id": 255174021, "lat": 53.3410496, "lon": -1.7292351, "tags": {"archaeological_site": "fortification", "historic": "archaeological_site", "historic:civilization": "ancient_roman", "historic:period": "principate", "name": "Navio Roman Fort", "source": "http://www.roman-britain.org/places/navio.htm", "website": "https://www.pastscape.org.uk/hob.aspx?hob_id=309471"}}, {"type": "node", "id": 255405500, "lat": 51.3235857, "lon": 0.6483777, "tags": {"historic": "archaeological_site", "name": "Stockbury Castle", "source": "npe", "wikidata": "Q24660855"}}, {"type": "node", "id": 255408386, "lat": 51.3639134, "lon": 0.6933441, "tags": {"historic": "archaeological_site", "name": "Moat"}}, {"type": "node", "id": 255415862, "lat": 51.3161505, "lon": 0.8565505, "tags": {"historic": "archaeological_site", "name": "Faversham Stone Chapel", "website": "https://www.english-heritage.org.uk/visit/places/faversham-stone-chapel-our-lady-of-elverton/", "wikidata": "Q5438575", "wikipedia": "en:Faversham Stone Chapel"}}, {"type": "node", "id": 255757352, "lat": 51.4413266, "lon": 0.4695305, "tags": {"created_by": "JOSM", "historic": "archaeological_site", "name": "Abbey", "source": "npe"}}, {"type": "node", "id": 256490027, "lat": 51.3640151, "lon": 0.1964219, "tags": {"addr:postcode": "DA4 0JA", "addr:street": "Lullingstone Lane", "archaeological_site": "roman_villa", "fhrs:id": "266698", "historic": "archaeological_site", "historic:civilization": "ancient_roman", "historic:period": "late_antiquity", "name": "Lullingstone Roman Villa", "ruins": "yes", "source:addr": "FHRS Open Data", "tourism": "attraction", "website": "https://www.english-heritage.org.uk/visit/places/lullingstone-roman-villa/", "wikidata": "Q1877182", "wikimedia_commons": "Category:Roman villa, Lullingstone", "wikipedia": "en:Lullingstone Roman Villa"}}, {"type": "node", "id": 256771562, "lat": 51.8402958, "lon": -0.6668488, "tags": {"historic": "archaeological_site", "name": "Southend Hill Hillfort", "wikidata": "Q17668630"}}, {"type": "node", "id": 256920748, "lat": 51.304477, "lon": 0.4195949, "tags": {"archaeological_site": "ruins", "historic": "archaeological_site", "historic:civilization": "ancient_roman", "name": "Castle", "source": "npe"}}, {"type": "node", "id": 257598905, "lat": 51.8419, "lon": -0.6076, "tags": {"archaeological_site": "fortification", "fortification_type": "hill_fort", "historic": "archaeological_site", "historic:civilization": "prehistoric", "historic:period": "iron-age", "name": "Ivinghoe Beacon", "wikidata": "Q1675753", "wikipedia": "en:Ivinghoe Beacon"}}, {"type": "node", "id": 257744817, "lat": 51.7255496, "lon": -0.5583236, "tags": {"created_by": "Potlatch 0.8a", "historic": "archaeological_site", "source": "NPE"}}, {"type": "node", "id": 258316432, "lat": 51.7142806, "lon": -0.3410071, "tags": {"archaeological_site": "roman_villa", "historic": "archaeological_site", "historic:civilization": "ancient_roman", "name": "Roman Villa"}}, {"type": "node", "id": 265758477, "lat": 50.8340445, "lon": -1.7199091, "tags": {"archaeological_site": "fortification", "fortification_type": "hill_fort", "historic": "archaeological_site", "name": "Castle Hill"}}, {"type": "node", "id": 269467560, "lat": 50.8339604, "lon": -1.0617213, "tags": {"historic": "archaeological_site", "name": "Bastion 4, Hilsea Lines"}}, {"type": "node", "id": 269467660, "lat": 50.8352113, "lon": -1.0748613, "tags": {"archaeological_site": "fortification", "historic": "archaeological_site", "historic:civilization": "modern", "name": "Bastion 1 Hilsea Lines", "wikidata": "Q5764368", "wikipedia": "en:Hilsea Lines"}}, {"type": "node", "id": 273185621, "lat": 51.1175596, "lon": -0.5993966, "tags": {"historic": "archaeological_site", "name": "Roman Buildings", "source": "npe"}}, {"type": "node", "id": 273466332, "lat": 51.3143821, "lon": -1.1560708, "tags": {"archaeological_site": "megalith", "historic": "archaeological_site", "megalith_type": "stone_circle", "name": "Stone Circle"}}, {"type": "node", "id": 274396784, "lat": 49.5022505, "lon": -2.5363333, "tags": {"description": "Megalithic passage grave", "historic": "archaeological_site", "name": "La Varde Passage Grave"}}, {"type": "node", "id": 274572618, "lat": 49.5088257, "lon": -2.5186425, "tags": {"historic": "archaeological_site", "name": "Fort Le Marchant"}}, {"type": "node", "id": 274572622, "lat": 49.5064849, "lon": -2.5180363, "tags": {"historic": "archaeological_site"}}, {"type": "node", "id": 274573192, "lat": 49.5022244, "lon": -2.5309165, "tags": {"historic": "archaeological_site", "name": "Tower 7"}}, {"type": "node", "id": 276342726, "lat": 51.2082262, "lon": -0.7415514, "tags": {"historic": "archaeological_site", "name": "Soldiers Ring", "source": "npe", "wikidata": "Q17645301"}}, {"type": "node", "id": 280761623, "lat": 51.7831615, "lon": -0.1656157, "tags": {"historic": "archaeological_site"}}, {"type": "node", "id": 283588019, "lat": 51.5849732, "lon": -4.2804707, "tags": {"created_by": "JOSM", "historic": "archaeological_site", "name": "Swaynes Howes (burial chambers)"}}, {"type": "node", "id": 287376496, "lat": 51.1566686, "lon": 0.045215, "tags": {"historic": "archaeological_site", "name": "Dry Hill Fort", "source": "npe"}}, {"type": "node", "id": 288250604, "lat": 51.2720321, "lon": 0.0130472, "tags": {"historic": "archaeological_site", "name": "Roman Villa", "source": "npe"}}, {"type": "node", "id": 290005432, "lat": 51.2543485, "lon": -0.1065584, "tags": {"historic": "archaeological_site", "name": "Roman Villa", "source": "npe"}}, {"type": "node", "id": 290006490, "lat": 51.2498545, "lon": -0.0695006, "tags": {"archaeological_site": "tumulus", "description": "tumuli", "historic": "archaeological_site", "source": "npe"}}, {"type": "node", "id": 292020319, "lat": 51.532239, "lon": -3.2212896, "tags": {"created_by": "Potlatch 0.10f", "historic": "archaeological_site", "loc_name": "The Twmpath", "name": "Twmpath Motte and Bailey", "name:cy": "Y Twmpath", "source": "local_knowledge"}}, {"type": "node", "id": 292932102, "lat": 52.0186402, "lon": -4.8282519, "tags": {"historic": "archaeological_site", "name": "Carreg Coetan", "source": "survey", "source:name": "voice", "wikidata": "Q1044900"}}, {"type": "node", "id": 293471103, "lat": 50.8949062, "lon": -1.3149986, "tags": {"historic": "archaeological_site", "man_made": "windmill", "name": "Bursledon Windmill", "wikidata": "Q5000618"}}, {"type": "node", "id": 293683834, "lat": 53.3074405, "lon": -1.6631184, "tags": {"alt_name": "Eyam Moor I Stone Circle", "archaeological_site": "megalith", "historic": "archaeological_site", "megalith_type": "stone_circle", "name": "Wet Withens"}}, {"type": "node", "id": 296020075, "lat": 52.1071631, "lon": 0.1194014, "tags": {"historic": "archaeological_site", "name": "Chronicle Hills", "natural": "hill", "note": "Burial mounds", "source": "OS 1:25k"}}, {"type": "node", "id": 298136503, "lat": 51.2026085, "lon": -0.4017668, "tags": {"archaeological_site": "tumulus", "historic": "archaeological_site", "name": "Tumulus", "note": "Position only approximate", "source": "npe"}}, {"type": "node", "id": 298158408, "lat": 51.1279587, "lon": -0.3478701, "tags": {"historic": "archaeological_site", "name": "Moat", "source": "npe"}}, {"type": "node", "id": 299825211, "lat": 51.1201717, "lon": -0.4750909, "tags": {"historic": "archaeological_site", "name": "Moat", "source": "npe"}}, {"type": "node", "id": 299834686, "lat": 51.1936914, "lon": -0.4963953, "tags": {"created_by": "Potlatch 0.10f", "historic": "archaeological_site", "name": "Roman Temple", "source": "npe; servay"}}, {"type": "node", "id": 301249997, "lat": 52.1832578, "lon": 0.2339404, "tags": {"description": "Excavations have found there was once a large stone and timber framed house on this location built in the Mediaeval period. It was surrounded by a moat up to 10m wide, 3m deep. This moat may have been used for defence, status or keeping out animals.", "historic": "archaeological_site", "name": "Dunmowes Manor", "note": "10th century moated manor house"}}, {"type": "node", "id": 301429557, "lat": 51.1118489, "lon": -0.6925277, "tags": {"access": "yes", "archaeological_site": "settlement", "historic": "archaeological_site", "historic:civilization": "medieval", "name": "The Moat", "source": "npe originally;moved to other side of path after visit."}}, {"type": "node", "id": 301461840, "lat": 51.159294, "lon": -0.7861887, "tags": {"archaeological_site": "tumulus", "historic": "archaeological_site", "source": "npe"}}, {"type": "node", "id": 301594567, "lat": 51.1604798, "lon": -0.6991068, "tags": {"archaeological_site": "tumulus", "historic": "archaeological_site", "name": "Tumulus", "source": "OS7"}}, {"type": "node", "id": 301595998, "lat": 51.2153243, "lon": -0.8521757, "tags": {"historic": "archaeological_site", "name": "Powerham Castle"}}, {"type": "node", "id": 301595999, "lat": 51.2177558, "lon": -0.8628607, "tags": {"historic": "archaeological_site", "name": "Roman Villa", "source": "npe"}}, {"type": "node", "id": 301596503, "lat": 51.2156148, "lon": -0.8632314, "tags": {"historic": "archaeological_site", "name": "Barley Pound", "source": "npe"}}, {"type": "node", "id": 301598165, "lat": 51.1970648, "lon": -0.7221122, "tags": {"archaeological_site": "tumulus", "historic": "archaeological_site", "name": "Tumulus", "source": "OS7"}}, {"type": "node", "id": 301599834, "lat": 51.2120826, "lon": -0.6924599, "tags": {"historic": "archaeological_site", "name": "Earthwork", "source": "npe"}}, {"type": "node", "id": 301600187, "lat": 51.2208545, "lon": -0.6568429, "tags": {"archaeological_site": "tumulus", "historic": "archaeological_site", "name": "Tumulus", "source": "OS7"}}, {"type": "node", "id": 301601097, "lat": 51.222815, "lon": -0.6310109, "tags": {"historic": "archaeological_site", "name": "Roman Villa", "source": "OS7"}}, {"type": "node", "id": 302017122, "lat": 52.8661061, "lon": -1.2473732, "tags": {"description": "Roman Temple - buried under coal heap!", "historic": "archaeological_site"}}, {"type": "node", "id": 302325186, "lat": 51.3715034, "lon": -0.5805498, "tags": {"archaeological_site": "tumulus", "historic": "archaeological_site", "source": "npe"}}, {"type": "node", "id": 303570735, "lat": 53.2194314, "lon": -1.5709982, "tags": {"archaeological_site": "tumulus", "historic": "archaeological_site", "historic:civilization": "bronze-age", "name": "Hob Hurst's House", "operator": "English Heritage", "source": "Bing", "wikidata": "Q5874611", "wikipedia": "en:Hob Hurst's House"}}, {"type": "node", "id": 303571498, "lat": 53.1624837, "lon": -1.6449916, "tags": {"alt_name": "Doll Tor", "archaeological_site": "megalith", "description": "Small 6 stones circle formed part of a larger complex with a ditch, cairn (stone mound) and nearby boulders possibly associated", "he:inscription_date": "1956-09-20", "heritage": "Scheduled Monument", "heritage:operator": "English Heritage", "heritage:website": "https://historicengland.org.uk/listing/the-list/list-entry/1017664", "historic": "archaeological_site", "historic:civilization": "prehistoric", "historic:period": "bronze-age", "megalith_type": "stone_circle", "name": "Doll Tor Stone Circle", "official_name": "Doll Tor stone circle and cairn", "operator": "Historic England;Peak National Park Authority", "ref:he": "1017664", "wikidata": "Q5289184", "wikipedia": "en:Doll Tor"}}, {"type": "node", "id": 303571761, "lat": 53.16893, "lon": -1.7615222, "tags": {"archaeological_site": "megalith", "historic": "archaeological_site", "megalith_type": "stone_circle", "name": "Arbor Low", "source": "http://pastscape.org.uk/hob.aspx?hob_id=308656", "website": "https://www.english-heritage.org.uk/visit/places/arbor-low-stone-circle-and-gib-hill-barrow/", "wikidata": "Q630312", "wikipedia": "en:Arbor Low"}}, {"type": "node", "id": 305580192, "lat": 51.3569041, "lon": 0.0429538, "tags": {"historic": "archaeological_site", "name": "Caesar's Camp", "source": "npe"}}, {"type": "node", "id": 307642900, "lat": 51.6747407, "lon": -1.2827865, "tags": {"historic": "archaeological_site", "name": "Fitzharry's Castle Mound"}}, {"type": "node", "id": 308966213, "lat": 51.1292898, "lon": -1.6861365, "tags": {"access": "no", "archaeological_site": "tumulus", "historic": "archaeological_site", "source:name": "npe"}}, {"type": "node", "id": 308966300, "lat": 51.1287625, "lon": -1.6868367, "tags": {"access": "no", "archaeological_site": "tumulus", "historic": "archaeological_site"}}, {"type": "node", "id": 308966301, "lat": 51.1237412, "lon": -1.7034582, "tags": {"archaeological_site": "tumulus", "historic": "archaeological_site", "source:name": "npe"}}, {"type": "node", "id": 308966302, "lat": 51.1225973, "lon": -1.6996023, "tags": {"archaeological_site": "tumulus", "historic": "archaeological_site", "source:name": "npe"}}, {"type": "node", "id": 308966332, "lat": 51.1155682, "lon": -1.6884779, "tags": {"archaeological_site": "tumulus", "historic": "archaeological_site", "source": "npe"}}, {"type": "node", "id": 308966333, "lat": 51.116624, "lon": -1.6878973, "tags": {"archaeological_site": "tumulus", "historic": "archaeological_site", "source": "npe"}}, {"type": "node", "id": 308966334, "lat": 51.1142858, "lon": -1.685402, "tags": {"archaeological_site": "tumulus", "historic": "archaeological_site", "source": "npe"}}, {"type": "node", "id": 308966335, "lat": 51.1161585, "lon": -1.6903459, "tags": {"archaeological_site": "tumulus", "historic": "archaeological_site", "source": "npe"}}, {"type": "node", "id": 308966336, "lat": 51.113534, "lon": -1.674608, "tags": {"access": "no", "archaeological_site": "tumulus", "historic": "archaeological_site", "historic:civilization": "prehistoric"}}, {"type": "node", "id": 308966762, "lat": 51.1448124, "lon": -1.6432089, "tags": {"historic": "archaeological_site", "name": "Long Barrow", "source": "npe"}}, {"type": "node", "id": 311290122, "lat": 53.2451122, "lon": -6.1223247, "tags": {"alt_name": "Ballybrack Portal Tomb;Ballybrack", "archaeological_site": "megalith", "historic": "archaeological_site", "megalith_type": "dolmen", "name": "Ballybrack Dolmen", "wikidata": "Q33123177"}}, {"type": "node", "id": 312222766, "lat": 53.2862433, "lon": -2.6928131, "tags": {"historic": "archaeological_site", "name": "Bradley Hill Fort", "wikidata": "Q4955072", "wikipedia": "en:Bradley hill fort"}}, {"type": "node", "id": 313720541, "lat": 51.2117793, "lon": -1.5263561, "tags": {"archaeological_site": "tumulus", "historic": "archaeological_site"}}, {"type": "node", "id": 313720636, "lat": 51.2179763, "lon": -1.4299623, "tags": {"created_by": "Potlatch 0.10f", "historic": "archaeological_site", "name": "Roman Building", "source": "npe"}}, {"type": "node", "id": 313720684, "lat": 51.238777, "lon": -1.4393179, "tags": {"archaeological_site": "tumulus", "historic": "archaeological_site"}}, {"type": "node", "id": 313720722, "lat": 51.2392069, "lon": -1.4380304, "tags": {"archaeological_site": "tumulus", "historic": "archaeological_site"}}, {"type": "node", "id": 313720912, "lat": 51.1402802, "lon": -1.035227, "tags": {"created_by": "Potlatch 0.10f", "historic": "archaeological_site", "name": "Roman Building", "source": "npe"}}, {"type": "node", "id": 314742302, "lat": 53.2373165, "lon": -2.6454302, "tags": {"created_by": "Potlatch 0.10f", "historic": "archaeological_site", "name": "Gallowsclough Cob", "note": "tumulus - little visible remains, just a hump in the field", "source": "NPE"}}, {"type": "node", "id": 316138753, "lat": 51.2276767, "lon": -0.3501273, "tags": {"archaeological_site": "tumulus", "historic": "archaeological_site", "historic:civilization": "prehistoric", "ref:he": "1007882"}}, {"type": "node", "id": 316422583, "lat": 53.3795544, "lon": -6.0822313, "tags": {"access": "permissive", "archaeological_site": "megalith", "historic": "archaeological_site", "megalith_type": "dolmen", "name": "Aideen's Dolmen", "tourism": "attraction"}}, {"type": "node", "id": 316530856, "lat": 50.5310396, "lon": -3.9512886, "tags": {"archaeological_site": "tumulus", "historic": "archaeological_site"}}, {"type": "node", "id": 316624278, "lat": 52.0114415, "lon": -5.0111765, "tags": {"created_by": "Potlatch 0.10f", "historic": "archaeological_site", "name": "Garnwnda Burial Chamber"}}, {"type": "node", "id": 317925006, "lat": 51.562599, "lon": -3.73009, "tags": {"historic": "archaeological_site", "name": "Margam Abbey", "tourism": "attraction", "wikidata": "Q1894788"}}, {"type": "node", "id": 318364784, "lat": 53.2473832, "lon": -6.3169898, "tags": {"archaeological_site": "megalith", "historic": "archaeological_site", "name": "Killakee Wedge Tomb"}}, {"type": "node", "id": 319511380, "lat": 51.4080919, "lon": -3.4859641, "tags": {"historic": "archaeological_site", "name": "Old Guild Hall/Town Hall"}}, {"type": "node", "id": 321848701, "lat": 53.3499529, "lon": -4.2529014, "tags": {"heritage": "2", "heritage:operator": "Cadw", "historic": "archaeological_site", "name": "Beddrod Siambr Llugwy", "name:cy": "Beddrod Siambr Llugwy", "name:en": "Llugwy Chambered Tomb", "wikidata": "Q12061340"}}, {"type": "node", "id": 322917833, "lat": 53.2325854, "lon": -4.1275894, "tags": {"historic": "archaeological_site", "name": "Roman Camp (hill fort)", "wheelchair": "no"}}, {"type": "node", "id": 324302302, "lat": 53.0295806, "lon": -2.8145779, "tags": {"archaeological_site": "tumulus", "historic": "archaeological_site"}}, {"type": "node", "id": 324339778, "lat": 52.8414258, "lon": -1.4984627, "tags": {"historic": "archaeological_site", "name": "Anchor Church", "wikidata": "Q4752670", "wikipedia": "en:Anchor Church"}}, {"type": "node", "id": 324378023, "lat": 51.7107392, "lon": -0.7749567, "tags": {"archaeological_site": "fortification", "fortification_type": "motte", "historic": "archaeological_site", "name": "Dane's Camp", "source": "local knowledge"}}, {"type": "node", "id": 325332726, "lat": 51.8380248, "lon": -2.1012694, "tags": {"description": "Panoramic views of the Severn Vale and Gloucester", "historic": "archaeological_site", "name": "Barrow Wake", "source": "personal knowledge", "tourism": "viewpoint"}}, {"type": "node", "id": 326186215, "lat": 51.8542253, "lon": -1.9842299, "tags": {"created_by": "Potlatch 0.10f", "ele": "295", "historic": "archaeological_site", "name": "Foxcote Hill", "natural": "peak", "note": "Elevation guestimated from NPE's 909 ft", "source": "NPE+Witt's Handbook of Gloucestershire (1883)"}}, {"type": "node", "id": 326239457, "lat": 51.7588743, "lon": -2.0506431, "tags": {"archaeological_site": "standing_stone", "historic": "archaeological_site", "name": "Hoar Stone", "source": "NPE"}}, {"type": "node", "id": 326274435, "lat": 51.7107716, "lon": -1.9734894, "tags": {"access": "yes", "archaeological_site": "settlement", "historic": "archaeological_site", "historic:civilization": "ancient_roman", "name": "Querns", "source": "NPE+Wikipedia", "wikidata": "Q7271375"}}, {"type": "node", "id": 327978870, "lat": 51.1845585, "lon": -0.6451628, "tags": {"historic": "archaeological_site", "name": "Burh of Eashing"}}, {"type": "node", "id": 330256623, "lat": 50.492864, "lon": -4.0105187, "tags": {"archaeological_site": "megalith", "historic": "archaeological_site", "megalith_type": "stone_circle", "name": "Yellow Mead Stone Circle", "source": "NPE", "wikidata": "Q1430202", "wikipedia": "en:Yellowmead stone circle"}}, {"type": "node", "id": 330279711, "lat": 50.6801861, "lon": -3.9129366, "tags": {"archaeological_site": "megalith", "historic": "archaeological_site", "megalith_type": "stone_circle", "name": "Stone Circle", "source": "NPE"}}, {"type": "node", "id": 330314786, "lat": 50.5425034, "lon": -3.9213536, "tags": {"archaeological_site": "megalith", "historic": "archaeological_site", "megalith_type": "stone_circle", "source": "NPE"}}, {"type": "node", "id": 330372878, "lat": 51.6931392, "lon": -2.3067373, "tags": {"access": "private", "description": "Site of a Romano-Celtic temple", "historic": "archaeological_site", "historic:civilization": "roman", "name": "West Hill", "source": "NPE+Wikipedia"}}, {"type": "node", "id": 330373140, "lat": 51.698652, "lon": -2.3059025, "tags": {"access": "yes", "archaeological_site": "tumulus", "description": "Prehistoric monument - scheduled ancient monument.  The photographs on English Heritage's website are out of date:  there is now (2/2026) no surrounding fence nor a gate on the tomb entrance, it's an easy crawl but knees pads and a torch are needed.", "heritage": "yes", "historic": "archaeological_site", "historic:civilization": "neolithic", "historic:era": "neolithic", "historic:period": "stone-age", "listed_status": "scheduled_monument", "loc_name": "Hetty Pegler's Tump", "megalith_type": "passage_grave", "name": "Uley Long Barrow", "note": "The popular name for this site is Hetty Pegler's Tump. Typically described as a long barrow, the mound is actually a trancepted gallery grave.", "note:ref": "en wikipedia page", "ref:he": "1008195", "source": "NPE", "wikidata": "Q2474714", "wikipedia": "en:Uley Long Barrow"}}, {"type": "node", "id": 330439086, "lat": 53.077867, "lon": -2.8016008, "tags": {"historic": "archaeological_site", "name": "Neolithic Cave", "natural": "cave_entrance"}}, {"type": "node", "id": 332057428, "lat": 51.1591579, "lon": -1.1368242, "tags": {"archaeological_site": "tumulus", "historic": "archaeological_site", "source": "npe"}}, {"type": "node", "id": 332057429, "lat": 51.1558203, "lon": -1.1257521, "tags": {"archaeological_site": "tumulus", "historic": "archaeological_site", "source": "npe"}}, {"type": "node", "id": 332057470, "lat": 51.1849888, "lon": -1.1981932, "tags": {"created_by": "Potlatch 0.10f", "historic": "archaeological_site", "name": "Roman Building", "source": "npe"}}, {"type": "node", "id": 332792502, "lat": 53.2362851, "lon": -1.8158866, "tags": {"HE_ref": "1008940", "archaeological_site": "megalith", "historic": "archaeological_site", "megalith_type": "chambered_cairn", "name": "Five Wells", "wikidata": "Q1421895", "wikimedia_commons": "File:Fivewells Chambered Cairn - geograph.org.uk - 1213011.jpg", "wikipedia": "en:Five Wells"}}, {"type": "node", "id": 338016126, "lat": 52.389872, "lon": -1.563907, "tags": {"created_by": "Potlatch 0.10f", "historic": "archaeological_site", "note": "neolithic?", "ref": "SP 298 770"}}, {"type": "node", "id": 343650756, "lat": 53.441979, "lon": -2.5926219, "tags": {"created_by": "Potlatch 0.10f", "historic": "archaeological_site", "name": "St Oswalds Well"}}, {"type": "node", "id": 344923585, "lat": 52.7553477, "lon": -4.0411949, "tags": {"historic": "archaeological_site", "name": "Mynydd Egryn Circle Cairn", "source": "npe"}}, {"type": "node", "id": 344923737, "lat": 52.7597993, "lon": -4.0121662, "tags": {"created_by": "Potlatch 0.10f", "historic": "archaeological_site", "name": "Cerrig y Cledd"}}, {"type": "node", "id": 345403496, "lat": 51.3547073, "lon": -0.2389464, "tags": {"historic": "archaeological_site", "name": "Site of Nonsuch Palace", "wheelchair": "limited", "wikidata": "Q769182", "wikipedia": "en:Nonsuch Palace"}}, {"type": "node", "id": 355964506, "lat": 51.8176031, "lon": -2.1298819, "tags": {"historic": "archaeological_site", "name": "West Tump"}}, {"type": "node", "id": 355973202, "lat": 51.8121573, "lon": -2.1268786, "tags": {"archaeological_site": "tumulus", "historic": "archaeological_site"}}, {"type": "node", "id": 356743862, "lat": 52.6730745, "lon": -2.5456119, "tags": {"created_by": "Potlatch 0.10f", "historic": "archaeological_site", "name": "Hell Gate"}}, {"type": "node", "id": 356745237, "lat": 52.6719035, "lon": -2.5476718, "tags": {"created_by": "Potlatch 0.10f", "historic": "archaeological_site", "name": "Heaven Gate"}}, {"type": "node", "id": 359271069, "lat": 52.3108583, "lon": 0.6370009, "tags": {"historic": "archaeological_site", "name": "West Stow Anglo Saxon Village", "wikidata": "Q7986591"}}, {"type": "node", "id": 360646529, "lat": 50.8346114, "lon": -1.0656143, "tags": {"historic": "archaeological_site", "name": "Bastion 3, Hilsea Lines"}}, {"type": "node", "id": 361130854, "lat": 53.3781117, "lon": -1.6779289, "tags": {"archaeological_site": "megalith", "heritage": "2", "heritage:operator": "he", "heritage:website": "https://historicengland.org.uk/listing/the-list/list-entry/1018094", "historic": "archaeological_site", "historic:civilization": "prehistoric", "megalith_type": "stone_circle", "name": "Hordron Edge Stone Circle", "ref:he": "1018094", "source": "NPE", "wikidata": "Q17664137"}}, {"type": "node", "id": 368016419, "lat": 52.6806894, "lon": 0.9384185, "tags": {"created_by": "Potlatch 0.10f", "historic": "archaeological_site", "name": "Bishop Bonner's Cottage"}}, {"type": "node", "id": 368666689, "lat": 50.843254, "lon": -0.0243663, "tags": {"archaeological_site": "tumulus", "historic": "archaeological_site", "name": "Tumulus", "source": "NPE"}}, {"type": "node", "id": 368675414, "lat": 50.8295943, "lon": -0.0187444, "tags": {"created_by": "Potlatch 0.10f", "historic": "archaeological_site", "source": "NPE"}}, {"type": "node", "id": 368679209, "lat": 50.8339041, "lon": -0.0076722, "tags": {"created_by": "Potlatch 0.10f", "historic": "archaeological_site", "source": "NPE"}}, {"type": "node", "id": 368679845, "lat": 50.8350424, "lon": -0.0066852, "tags": {"created_by": "Potlatch 0.10f", "historic": "archaeological_site", "source": "NPE"}}, {"type": "node", "id": 368682831, "lat": 50.8274257, "lon": -0.0163411, "tags": {"created_by": "Potlatch 0.10f", "historic": "archaeological_site", "source": "NPE"}}, {"type": "node", "id": 368689396, "lat": 50.8268836, "lon": -0.0111054, "tags": {"created_by": "Potlatch 0.10f", "historic": "archaeological_site", "source": "NPE"}}, {"type": "node", "id": 368702422, "lat": 50.8069277, "lon": -0.0196027, "tags": {"access": "yes", "alt_name": "Pedlersbery", "archaeological_site": "burial", "description": "A Neolithic or Bronze Age bowl barrow, known as Pedlersburgh or Pedlersbery.", "historic": "archaeological_site", "historic:civilization": "neolithic", "name": "Pedlersburgh", "source": "NPE;https://historicengland.org.uk/listing/the-list/list-entry/1009942"}}, {"type": "node", "id": 368711086, "lat": 50.8171507, "lon": 0.0232268, "tags": {"fixme": "?pos?", "historic": "archaeological_site"}}, {"type": "node", "id": 369112828, "lat": 52.681009, "lon": 0.9373279, "tags": {"historic": "archaeological_site", "name": "Saint Withburga's Well"}}, {"type": "node", "id": 369300170, "lat": 50.8641097, "lon": 0.0351089, "tags": {"created_by": "Potlatch 0.10f", "historic": "archaeological_site", "source": "NPE"}}, {"type": "node", "id": 369304127, "lat": 50.8755192, "lon": -0.0139882, "tags": {"archaeological_site": "tumulus", "description": "A saucer barrow and a bowl barrow 600m north west of Lewes Prison: the southerly pair of a group of three round barrows", "heritage": "2", "heritage:operator": "Historic England", "historic": "archaeological_site", "ref:GB:nhle": "1013539"}}, {"type": "node", "id": 369304132, "lat": 50.8758617, "lon": -0.0141653, "tags": {"archaeological_site": "tumulus", "description": "A saucer barrow and a bowl barrow 600m north west of Lewes Prison: the southerly pair of a group of three round barrows", "heritage": "2", "heritage:operator": "Historic England", "historic": "archaeological_site", "ref:GB:nhle": "1013539"}}, {"type": "node", "id": 369304154, "lat": 50.8766626, "lon": -0.0142125, "tags": {"archaeological_site": "tumulus", "description": "Bowl barrow 700m north west of Lewes Prison: the northerly barrow of a group of three round barrows", "heritage": "2", "heritage:operator": "Historic England", "historic": "archaeological_site", "ref:GB:nhle": "1013540"}}, {"type": "node", "id": 369306811, "lat": 50.8812768, "lon": -0.0083251, "tags": {"archaeological_site": "tumulus", "description": "A platform barrow and two bowl barrows forming a linear barrow group SSE of Offham Hill", "heritage": "2", "heritage:operator": "Historic England", "historic": "archaeological_site", "ref:GB:nhle": "1009946"}}, {"type": "node", "id": 370206805, "lat": 51.4086455, "lon": -1.8504375, "tags": {"archaeological_site": "megalith", "heritage": "yes", "historic": "archaeological_site", "historic:civilization": "prehistoric", "material": "stone", "megalith_type": "long_barrow", "name": "West Kennet Long Barrow", "wikidata": "Q541312"}}, {"type": "node", "id": 370319697, "lat": 50.8346677, "lon": 0.0941467, "tags": {"created_by": "Potlatch 0.10f", "historic": "archaeological_site", "source": "NPE"}}, {"type": "node", "id": 370319724, "lat": 50.8338004, "lon": 0.1009274, "tags": {"created_by": "Potlatch 0.10f", "historic": "archaeological_site", "source": "NPE"}}, {"type": "node", "id": 370319830, "lat": 50.8342341, "lon": 0.09655, "tags": {"created_by": "Potlatch 0.10f", "historic": "archaeological_site", "source": "NPE"}}, {"type": "node", "id": 370319976, "lat": 50.8336107, "lon": 0.075264, "tags": {"created_by": "Potlatch 0.10f", "historic": "archaeological_site", "name": "Males Burgh", "source": "NPE"}}, {"type": "node", "id": 370321191, "lat": 50.8273221, "lon": 0.0904131, "tags": {"created_by": "Potlatch 0.10f", "historic": "archaeological_site", "name": "Lord's Burghs", "source": "NPE"}}, {"type": "node", "id": 370322799, "lat": 50.8238521, "lon": 0.099597, "tags": {"created_by": "Potlatch 0.10f", "historic": "archaeological_site", "source": "NPE"}}, {"type": "node", "id": 371745922, "lat": 53.2072818, "lon": -4.5035215, "tags": {"historic": "archaeological_site", "megalith_type": "dolmen", "name": "Barclodiad y Gawres", "name:cy": "Beddrod Siambr Barclodiad y Gawres", "tourism": "attraction", "website": "http://cadw.wales.gov.uk/daysout/barclodiad-burial-chamber/?lang=en", "wikidata": "Q807965"}}, {"type": "node", "id": 380752731, "lat": 49.9314108, "lon": -6.3079207, "tags": {"archaeological_site": "settlement", "description": "Iron Age village", "fee": "no", "historic": "archaeological_site", "historic:civilization": "iron-age", "name": "Halangy Down Ancient Village", "operator": "English Heritage", "website": "https://www.english-heritage.org.uk/visit/places/bants-carn-burial-chamber-and-halangy-down-ancient-village/", "wikidata": "Q1570224"}}, {"type": "node", "id": 380756797, "lat": 49.9308177, "lon": -6.3074208, "tags": {"archaeological_site": "burial", "description": "Bronze Age burial mound with entrance passage and inner chamber. .", "fee": "no", "historic": "archaeological_site", "historic:civilization": "bronze-age", "name": "Bant's Carn", "operator": "English Heritage", "website": "https://www.english-heritage.org.uk/visit/places/bants-carn-burial-chamber-and-halangy-down-ancient-village/", "wikidata": "Q806998", "wikipedia": "en:Bant's Carn"}}, {"type": "node", "id": 382917761, "lat": 51.4078554, "lon": -0.7528605, "tags": {"archaeological_site": "tumulus", "historic": "archaeological_site", "name": "Tumulus"}}, {"type": "node", "id": 386055629, "lat": 50.7736887, "lon": 0.1827455, "tags": {"archaeological_site": "tumulus", "historic": "archaeological_site", "source": "npe"}}, {"type": "node", "id": 386055635, "lat": 50.7935018, "lon": 0.2256355, "tags": {"historic": "archaeological_site", "name": "Field System"}}, {"type": "node", "id": 391029597, "lat": 51.2890917, "lon": -1.0484723, "tags": {"historic": "archaeological_site", "loc_name": "Pyotts Hill Entrenchment", "name": "Park Pale"}}, {"type": "node", "id": 392669837, "lat": 53.222183, "lon": -6.3108565, "tags": {"historic": "archaeological_site", "name": "Bullaun Stone"}}, {"type": "node", "id": 400702695, "lat": 53.4718797, "lon": -2.7544848, "tags": {"historic": "archaeological_site", "name": "Windle Hall"}}, {"type": "node", "id": 403887883, "lat": 53.1842264, "lon": -2.8893361, "tags": {"historic": "archaeological_site", "name": "Minerva Roman rock shrine", "wikidata": "Q6864464", "wikipedia": "en:Minerva's Shrine, Chester"}}, {"type": "node", "id": 409682536, "lat": 51.573778, "lon": -3.121812, "tags": {"historic": "archaeological_site", "historic:civilization": "celtic", "name": "Ruperra Hill Fort", "wikidata": "Q13126368"}}, {"type": "node", "id": 409711653, "lat": 51.9933061, "lon": -2.5937572, "tags": {"historic": "archaeological_site", "name": "Caplar Camp Hill Fort", "wikidata": "Q5036034", "wikipedia": "en:Capler Camp"}}, {"type": "node", "id": 410161903, "lat": 51.238622, "lon": -2.376169, "tags": {"historic": "archaeological_site", "name": "Fussells Iron Works (ruins)"}}, {"type": "node", "id": 410170365, "lat": 50.6914932, "lon": -4.0598865, "tags": {"historic": "archaeological_site", "name": "Ice works (disused)"}}, {"type": "node", "id": 410598615, "lat": 52.0822861, "lon": -2.995354, "tags": {"historic": "archaeological_site", "name": "Arthurs Stone", "wikidata": "Q4797722"}}, {"type": "node", "id": 410615488, "lat": 53.132483, "lon": -6.2498197, "tags": {"archaeological_site": "megalith", "historic": "archaeological_site", "megalith_type": "portal_tomb", "name": "The Coffin Stone"}}, {"type": "node", "id": 411708122, "lat": 51.7699163, "lon": -2.2862724, "tags": {"archaeological_site": "tumulus", "historic": "archaeological_site", "source": "NPE"}}, {"type": "node", "id": 411708123, "lat": 51.7713238, "lon": -2.2889761, "tags": {"archaeological_site": "tumulus", "historic": "archaeological_site", "source": "NPE"}}, {"type": "node", "id": 411716577, "lat": 51.7715554, "lon": -2.460855, "tags": {"archaeological_site": "tumulus", "historic": "archaeological_site"}}, {"type": "node", "id": 411934242, "lat": 51.7799607, "lon": -2.1263887, "tags": {"archaeological_site": "megalith", "historic": "archaeological_site", "megalith_type": "long_barrow", "name": "The Camp Long Barrow", "source": "NPE + local knowledge", "wikidata": "Q17645976"}}, {"type": "node", "id": 412395076, "lat": 51.7607618, "lon": -2.2547087, "tags": {"description": "Long Barrow", "historic": "archaeological_site", "source": "NPE"}}, {"type": "node", "id": 412521541, "lat": 51.6142194, "lon": -3.2550811, "tags": {"historic": "archaeological_site", "name": "Senghenydd Dyke"}}, {"type": "node", "id": 412860889, "lat": 51.2606403, "lon": -2.6618363, "tags": {"historic": "archaeological_site", "name": "Priddy Nine Barrows"}}, {"type": "node", "id": 415265540, "lat": 51.5243889, "lon": -1.0167586, "tags": {"alt_name": "Wyfold Castle", "archaeological_site": "fortification", "fortification_type": "hill_fort", "historic": "archaeological_site", "name": "Castle Grove Camp", "source": "GPS", "wikidata": "Q17642722"}}, {"type": "node", "id": 415999285, "lat": 51.7756593, "lon": -2.5056594, "tags": {"historic": "archaeological_site", "name": "Exposed Roman Road"}}, {"type": "node", "id": 416052216, "lat": 53.0528967, "lon": -2.5414209, "tags": {"archaeological_site": "moat", "historic": "archaeological_site"}}, {"type": "node", "id": 416380302, "lat": 51.7747121, "lon": -2.2404279, "tags": {"description": "Tumuli", "historic": "archaeological_site", "source": "NPE"}}, {"type": "node", "id": 416391268, "lat": 51.839317, "lon": -2.0660954, "tags": {"HE_ref": "1002129", "archaeological_site": "megalith", "historic": "archaeological_site", "listed_status": "scheduled_monument", "megalith_type": "long_barrow", "name": "Coberley Long Barrow", "source": "NLS-OS-1st_Series", "wikidata": "Q17645982"}}, {"type": "node", "id": 416391276, "lat": 51.8400323, "lon": -2.0951801, "tags": {"description": "Tumuli", "historic": "archaeological_site", "source": "NPE"}}, {"type": "node", "id": 416391281, "lat": 51.8207325, "lon": -2.0813668, "tags": {"archaeological_site": "tumulus", "historic": "archaeological_site", "source": "NPE"}}, {"type": "node", "id": 416630956, "lat": 51.7336536, "lon": -2.0050623, "tags": {"archaeological_site": "tumulus", "historic": "archaeological_site", "name": "Wellhill Copse Barrow", "source": "NPE", "wikidata": "Q17640812"}}, {"type": "node", "id": 416647619, "lat": 51.6839833, "lon": -2.1644508, "tags": {"description": "Long Barrow", "historic": "archaeological_site", "source": "NPE"}}, {"type": "node", "id": 416647622, "lat": 51.6843707, "lon": -2.1622434, "tags": {"historic": "archaeological_site", "name": "Norns Tump", "source": "NPE"}}, {"type": "node", "id": 416647626, "lat": 51.6777205, "lon": -2.1027585, "tags": {"archaeological_site": "tumulus", "historic": "archaeological_site", "source": "NPE"}}, {"type": "node", "id": 416647627, "lat": 51.6651562, "lon": -2.1720281, "tags": {"archaeological_site": "tumulus", "historic": "archaeological_site", "source": "NPE"}}, {"type": "node", "id": 416647628, "lat": 51.7121942, "lon": -2.1598369, "tags": {"archaeological_site": "tumulus", "historic": "archaeological_site", "source": "NPE"}}, {"type": "node", "id": 416661343, "lat": 51.6749901, "lon": -2.0671216, "tags": {"archaeological_site": "tumulus", "historic": "archaeological_site", "source": "NPE"}}, {"type": "node", "id": 416851415, "lat": 51.6848018, "lon": -2.1720878, "tags": {"description": "Long Barrow", "historic": "archaeological_site", "source": "NPE"}}, {"type": "node", "id": 416851416, "lat": 51.6870144, "lon": -2.2026883, "tags": {"archaeological_site": "tumulus", "historic": "archaeological_site", "source": "NPE"}}, {"type": "node", "id": 416851417, "lat": 51.683689, "lon": -2.1929948, "tags": {"archaeological_site": "tumulus", "historic": "archaeological_site", "source": "NPE"}}, {"type": "node", "id": 416851418, "lat": 51.6893248, "lon": -2.1690837, "tags": {"historic": "archaeological_site", "name": "The TIngle Stone", "source": "NPE"}}, {"type": "node", "id": 416851419, "lat": 51.6978694, "lon": -2.1699471, "tags": {"historic": "archaeological_site", "name": "The Long Stone", "source": "NPE", "wikidata": "Q15242817", "wikipedia": "en:Longstone of Minchinhampton"}}, {"type": "node", "id": 416851692, "lat": 51.696322, "lon": -2.1698533, "tags": {"archaeological_site": "megalith", "historic": "archaeological_site", "megalith_type": "long_barrow", "wikidata": "Q17650529"}}, {"type": "node", "id": 420302707, "lat": 51.7931493, "lon": -2.0970088, "tags": {"archaeological_site": "tumulus", "historic": "archaeological_site", "source": "NPE"}}, {"type": "node", "id": 420302709, "lat": 51.7921248, "lon": -2.1055232, "tags": {"archaeological_site": "tumulus", "historic": "archaeological_site", "source": "NPE"}}, {"type": "node", "id": 420302710, "lat": 51.7835848, "lon": -2.0858492, "tags": {"archaeological_site": "tumulus", "historic": "archaeological_site", "source": "NPE"}}, {"type": "node", "id": 420302711, "lat": 51.7531676, "lon": -2.0595998, "tags": {"description": "Long Barrows", "historic": "archaeological_site", "source": "NPE"}}, {"type": "node", "id": 420302716, "lat": 51.7579818, "lon": -2.0520507, "tags": {"archaeological_site": "megalith", "description": "Long Barrow", "historic": "archaeological_site", "megalith_type": "long_barrow", "source": "NPE"}}, {"type": "node", "id": 420302718, "lat": 51.7559044, "lon": -2.1006309, "tags": {"archaeological_site": "megalith", "historic": "archaeological_site", "megalith_type": "long_barrow", "source": "NPE"}}, {"type": "node", "id": 420302721, "lat": 51.7655041, "lon": -2.1305435, "tags": {"archaeological_site": "megalith", "description": "Long Barrow", "historic": "archaeological_site", "megalith_type": "long_barrow", "source": "NPE"}}, {"type": "node", "id": 420302725, "lat": 51.7541511, "lon": -2.1203719, "tags": {"archaeological_site": "standing_stone", "historic": "archaeological_site", "name": "The Giants Stone", "source": "NPE"}}, {"type": "node", "id": 420302726, "lat": 51.7670126, "lon": -2.0636379, "tags": {"archaeological_site": "tumulus", "historic": "archaeological_site", "source": "NPE"}}, {"type": "node", "id": 420302727, "lat": 51.7632815, "lon": -2.0629188, "tags": {"archaeological_site": "megalith", "historic": "archaeological_site", "megalith_type": "long_barrow", "name": "Jack Barrow", "source": "NPE"}}, {"type": "node", "id": 428119020, "lat": 53.3732075, "lon": -6.0834104, "tags": {"historic": "archaeological_site", "name": "Shielmartin Hill Cairn"}}, {"type": "node", "id": 428161418, "lat": 53.2157713, "lon": -1.6700907, "tags": {"archaeological_site": "fortification", "fortification_type": "motte", "historic": "archaeological_site", "name": "Bakewell Castle", "source": "OS_OpenData_StreetView", "wikidata": "Q4849346", "wikipedia": "en:Bakewell Castle"}}, {"type": "node", "id": 428404864, "lat": 51.961676, "lon": -2.4201131, "tags": {"historic": "archaeological_site", "name": "Castle Tump", "source": "NPE", "wikidata": "Q5050319"}}, {"type": "node", "id": 429144049, "lat": 52.1137824, "lon": -2.6950653, "tags": {"historic": "archaeological_site", "name": "Sutton Walls (camp)", "wikidata": "Q7650343", "wikipedia": "en:Sutton Walls Hill Fort"}}, {"type": "node", "id": 429199869, "lat": 50.6112293, "lon": -4.5614039, "tags": {"archaeological_site": "tumulus", "historic": "archaeological_site"}}, {"type": "node", "id": 429199871, "lat": 50.6055855, "lon": -4.5801524, "tags": {"archaeological_site": "tumulus", "historic": "archaeological_site"}}, {"type": "node", "id": 429199872, "lat": 50.6319747, "lon": -4.576516, "tags": {"archaeological_site": "tumulus", "historic": "archaeological_site"}}, {"type": "node", "id": 429199874, "lat": 50.6252243, "lon": -4.5905001, "tags": {"archaeological_site": "tumulus", "historic": "archaeological_site"}}, {"type": "node", "id": 429199876, "lat": 50.6110106, "lon": -4.560631, "tags": {"archaeological_site": "tumulus", "historic": "archaeological_site"}}, {"type": "node", "id": 429199877, "lat": 50.6063773, "lon": -4.5811117, "tags": {"archaeological_site": "tumulus", "historic": "archaeological_site"}}, {"type": "node", "id": 429199878, "lat": 50.6111204, "lon": -4.5596014, "tags": {"archaeological_site": "tumulus", "historic": "archaeological_site"}}, {"type": "node", "id": 429199879, "lat": 50.6060974, "lon": -4.5810679, "tags": {"historic": "archaeological_site", "name": "tumuli"}}, {"type": "node", "id": 429199880, "lat": 50.6166748, "lon": -4.6492083, "tags": {"archaeological_site": "tumulus", "historic": "archaeological_site"}}, {"type": "node", "id": 429199881, "lat": 50.6063123, "lon": -4.6161884, "tags": {"historic": "archaeological_site"}}, {"type": "node", "id": 429199883, "lat": 50.6305601, "lon": -4.6395094, "tags": {"historic": "archaeological_site", "name": "tumulus"}}, {"type": "node", "id": 429199884, "lat": 50.6400324, "lon": -4.6262057, "tags": {"archaeological_site": "tumulus", "historic": "archaeological_site"}}, {"type": "node", "id": 429199885, "lat": 50.6443324, "lon": -4.6286948, "tags": {"archaeological_site": "tumulus", "historic": "archaeological_site"}}, {"type": "node", "id": 429199886, "lat": 50.644278, "lon": -4.6297247, "tags": {"archaeological_site": "tumulus", "historic": "archaeological_site"}}, {"type": "node", "id": 429199888, "lat": 50.6530401, "lon": -4.5827754, "tags": {"archaeological_site": "stone_cross", "historic": "archaeological_site"}}, {"type": "node", "id": 429199889, "lat": 50.6330822, "lon": -4.5434155, "tags": {"archaeological_site": "well", "historic": "archaeological_site", "name": "St Clether Holy Well", "wikidata": "Q17531954"}}, {"type": "node", "id": 429199890, "lat": 50.6269122, "lon": -4.5603735, "tags": {"archaeological_site": "cross", "historic": "archaeological_site"}}, {"type": "node", "id": 429199891, "lat": 50.5878593, "lon": -4.5258739, "tags": {"archaeological_site": "standing_stone", "historic": "archaeological_site", "name": "Standing Stone"}}, {"type": "node", "id": 429199892, "lat": 50.5972831, "lon": -4.5153124, "tags": {"archaeological_site": "cross", "historic": "archaeological_site"}}, {"type": "node", "id": 429199893, "lat": 50.5740152, "lon": -4.4821021, "tags": {"archaeological_site": "tumulus", "historic": "archaeological_site"}}, {"type": "node", "id": 429205868, "lat": 51.6324817, "lon": -2.4956151, "tags": {"historic": "archaeological_site", "name": "Fort Hill Camp"}}, {"type": "node", "id": 429218249, "lat": 50.5603839, "lon": -4.4999475, "tags": {"archaeological_site": "tumulus", "historic": "archaeological_site"}}, {"type": "node", "id": 429218257, "lat": 50.6040112, "lon": -4.4412822, "tags": {"archaeological_site": "cross", "historic": "archaeological_site"}}, {"type": "node", "id": 429218310, "lat": 50.6382633, "lon": -4.5953912, "tags": {"archaeological_site": "cross", "historic": "archaeological_site"}}, {"type": "node", "id": 429218315, "lat": 50.6554072, "lon": -4.5842761, "tags": {"archaeological_site": "tumulus", "historic": "archaeological_site"}}, {"type": "node", "id": 429218316, "lat": 50.6617189, "lon": -4.5887393, "tags": {"archaeological_site": "tumulus", "historic": "archaeological_site"}}, {"type": "node", "id": 429218318, "lat": 50.6631063, "lon": -4.6254749, "tags": {"archaeological_site": "tumulus", "historic": "archaeological_site"}}, {"type": "node", "id": 429218320, "lat": 50.6663358, "lon": -4.623106, "tags": {"archaeological_site": "tumulus", "historic": "archaeological_site"}}, {"type": "node", "id": 429218323, "lat": 50.6681658, "lon": -4.6122569, "tags": {"archaeological_site": "tumulus", "historic": "archaeological_site"}}, {"type": "node", "id": 429218326, "lat": 50.6632732, "lon": -4.6444055, "tags": {"archaeological_site": "megalith", "historic": "archaeological_site", "megalith_type": "long_barrow"}}, {"type": "node", "id": 429218329, "lat": 50.6613109, "lon": -4.6722955, "tags": {"archaeological_site": "stone_cross", "historic": "archaeological_site"}}, {"type": "node", "id": 429218330, "lat": 50.6578558, "lon": -4.6704072, "tags": {"archaeological_site": "stone_cross", "historic": "archaeological_site"}}, {"type": "node", "id": 429218332, "lat": 50.6675121, "lon": -4.672346, "tags": {"archaeological_site": "tumulus", "historic": "archaeological_site"}}, {"type": "node", "id": 429218334, "lat": 50.6594337, "lon": -4.7615594, "tags": {"archaeological_site": "tumulus", "historic": "archaeological_site"}}, {"type": "node", "id": 429218341, "lat": 50.683749, "lon": -4.6752996, "tags": {"archaeological_site": "well", "historic": "archaeological_site"}}, {"type": "node", "id": 429218348, "lat": 50.6905191, "lon": -4.6499795, "tags": {"archaeological_site": "Crosses", "historic": "archaeological_site"}}, {"type": "node", "id": 429218350, "lat": 50.7104159, "lon": -4.5957345, "tags": {"archaeological_site": "tumulus", "historic": "archaeological_site"}}, {"type": "node", "id": 429218351, "lat": 50.711041, "lon": -4.5963353, "tags": {"archaeological_site": "tumulus", "historic": "archaeological_site"}}, {"type": "node", "id": 429218354, "lat": 50.6852444, "lon": -4.6094245, "tags": {"archaeological_site": "tumulus", "historic": "archaeological_site"}}, {"type": "node", "id": 429218358, "lat": 50.6846734, "lon": -4.6091241, "tags": {"archaeological_site": "tumulus", "historic": "archaeological_site"}}, {"type": "node", "id": 429218362, "lat": 50.6845919, "lon": -4.6086091, "tags": {"archaeological_site": "tumulus", "historic": "archaeological_site"}}, {"type": "node", "id": 429236723, "lat": 51.2572652, "lon": -1.9144414, "tags": {"archaeological_site": "tumulus", "historic": "archaeological_site"}}, {"type": "node", "id": 429236724, "lat": 51.2529175, "lon": -1.9127292, "tags": {"archaeological_site": "tumulus", "historic": "archaeological_site"}}, {"type": "node", "id": 429236725, "lat": 51.2648418, "lon": -1.9280071, "tags": {"archaeological_site": "tumulus", "historic": "archaeological_site"}}, {"type": "node", "id": 429236727, "lat": 51.2975874, "lon": -1.948602, "tags": {"archaeological_site": "tumulus", "historic": "archaeological_site"}}, {"type": "node", "id": 429236729, "lat": 51.2942062, "lon": -1.9114803, "tags": {"archaeological_site": "tumulus", "historic": "archaeological_site"}}, {"type": "node", "id": 429236730, "lat": 51.295226, "lon": -1.8920396, "tags": {"archaeological_site": "tumulus", "historic": "archaeological_site"}}, {"type": "node", "id": 429236731, "lat": 51.2951723, "lon": -1.8913959, "tags": {"archaeological_site": "tumulus", "historic": "archaeological_site"}}, {"type": "node", "id": 429236732, "lat": 51.2937272, "lon": -1.8717426, "tags": {"archaeological_site": "tumulus", "historic": "archaeological_site"}}, {"type": "node", "id": 429236733, "lat": 51.2912273, "lon": -1.8664191, "tags": {"archaeological_site": "tumulus", "historic": "archaeological_site"}}, {"type": "node", "id": 429236737, "lat": 51.2737796, "lon": -1.7608903, "tags": {"archaeological_site": "tumulus", "historic": "archaeological_site"}}, {"type": "node", "id": 429236738, "lat": 51.2725983, "lon": -1.7526077, "tags": {"archaeological_site": "tumulus", "historic": "archaeological_site"}}, {"type": "node", "id": 429236739, "lat": 51.272115, "lon": -1.7500757, "tags": {"archaeological_site": "tumulus", "historic": "archaeological_site"}}, {"type": "node", "id": 429236740, "lat": 51.2722224, "lon": -1.7444967, "tags": {"archaeological_site": "tumulus", "historic": "archaeological_site"}}, {"type": "node", "id": 429236741, "lat": 51.2575606, "lon": -1.718447, "tags": {"archaeological_site": "tumulus", "historic": "archaeological_site"}}, {"type": "node", "id": 429236742, "lat": 51.2578561, "lon": -1.7189191, "tags": {"archaeological_site": "tumulus", "historic": "archaeological_site"}}, {"type": "node", "id": 429236743, "lat": 51.2589572, "lon": -1.7181466, "tags": {"archaeological_site": "tumulus", "historic": "archaeological_site"}}, {"type": "node", "id": 429236744, "lat": 51.2605954, "lon": -1.7147992, "tags": {"archaeological_site": "tumulus", "historic": "archaeological_site"}}, {"type": "node", "id": 429236745, "lat": 51.2598753, "lon": -1.7145095, "tags": {"archaeological_site": "tumulus", "historic": "archaeological_site"}}, {"type": "node", "id": 429236746, "lat": 51.2606089, "lon": -1.7086302, "tags": {"archaeological_site": "tumulus", "historic": "archaeological_site"}}, {"type": "node", "id": 429236747, "lat": 51.2602584, "lon": -1.7054168, "tags": {"archaeological_site": "tumulus", "historic": "archaeological_site"}}, {"type": "node", "id": 429236748, "lat": 51.262717, "lon": -1.7044352, "tags": {"archaeological_site": "tumulus", "historic": "archaeological_site"}}, {"type": "node", "id": 429236749, "lat": 51.2602194, "lon": -1.6953586, "tags": {"archaeological_site": "tumulus", "historic": "archaeological_site"}}, {"type": "node", "id": 429236750, "lat": 51.2570302, "lon": -1.7061759, "tags": {"archaeological_site": "tumulus", "historic": "archaeological_site"}}, {"type": "node", "id": 429236751, "lat": 51.2622545, "lon": -1.694585, "tags": {"archaeological_site": "tumulus", "historic": "archaeological_site"}}, {"type": "node", "id": 429236752, "lat": 51.2505503, "lon": -1.7416213, "tags": {"archaeological_site": "tumulus", "historic": "archaeological_site"}}, {"type": "node", "id": 429236754, "lat": 51.2529955, "lon": -1.7355662, "tags": {"archaeological_site": "tumulus", "historic": "archaeological_site"}}, {"type": "node", "id": 429236756, "lat": 51.2693226, "lon": -1.682999, "tags": {"archaeological_site": "tumulus", "historic": "archaeological_site"}}, {"type": "node", "id": 429236757, "lat": 51.26363, "lon": -1.6694377, "tags": {"archaeological_site": "tumulus", "historic": "archaeological_site"}}, {"type": "node", "id": 429236758, "lat": 51.2648643, "lon": -1.6950193, "tags": {"archaeological_site": "tumulus", "historic": "archaeological_site"}}, {"type": "node", "id": 429236759, "lat": 51.2683115, "lon": -1.6905593, "tags": {"archaeological_site": "tumulus", "historic": "archaeological_site"}}, {"type": "node", "id": 429236762, "lat": 51.2676042, "lon": -1.6910241, "tags": {"archaeological_site": "tumulus", "historic": "archaeological_site"}}, {"type": "node", "id": 429236768, "lat": 51.2678639, "lon": -1.6901335, "tags": {"archaeological_site": "tumulus", "historic": "archaeological_site"}}, {"type": "node", "id": 429236769, "lat": 51.2677547, "lon": -1.6892564, "tags": {"archaeological_site": "tumulus", "historic": "archaeological_site"}}, {"type": "node", "id": 429236771, "lat": 51.2682289, "lon": -1.6883538, "tags": {"archaeological_site": "tumulus", "historic": "archaeological_site"}}, {"type": "node", "id": 429236773, "lat": 51.2682342, "lon": -1.6872383, "tags": {"archaeological_site": "tumulus", "historic": "archaeological_site"}}, {"type": "node", "id": 429236775, "lat": 51.2679598, "lon": -1.6869999, "tags": {"archaeological_site": "tumulus", "historic": "archaeological_site"}}, {"type": "node", "id": 429236777, "lat": 51.2677973, "lon": -1.6846325, "tags": {"archaeological_site": "tumulus", "historic": "archaeological_site"}}, {"type": "node", "id": 429236780, "lat": 51.2662202, "lon": -1.687102, "tags": {"archaeological_site": "tumulus", "historic": "archaeological_site"}}, {"type": "node", "id": 429236783, "lat": 51.2663614, "lon": -1.6850668, "tags": {"archaeological_site": "tumulus", "historic": "archaeological_site"}}, {"type": "node", "id": 429236785, "lat": 51.2690273, "lon": -1.699736, "tags": {"archaeological_site": "tumulus", "historic": "archaeological_site"}}, {"type": "node", "id": 429236788, "lat": 51.271927, "lon": -1.6792653, "tags": {"archaeological_site": "tumulus", "historic": "archaeological_site"}}, {"type": "node", "id": 429236790, "lat": 51.2721955, "lon": -1.6800378, "tags": {"archaeological_site": "tumulus", "historic": "archaeological_site"}}, {"type": "node", "id": 429237001, "lat": 51.2595222, "lon": -1.8761663, "tags": {"archaeological_site": "megalith", "historic": "archaeological_site", "megalith_type": "long_barrow", "name": "Slay Barrow"}}, {"type": "node", "id": 429237003, "lat": 51.2462254, "lon": -1.8725131, "tags": {"archaeological_site": "tumulus", "historic": "archaeological_site"}}, {"type": "node", "id": 429237840, "lat": 51.2641369, "lon": -1.8157115, "tags": {"archaeological_site": "tumulus", "historic": "archaeological_site"}}, {"type": "node", "id": 429261798, "lat": 51.1922043, "lon": -1.8078742, "tags": {"archaeological_site": "tumulus", "historic": "archaeological_site"}}, {"type": "node", "id": 429261800, "lat": 51.1916518, "lon": -1.8075971, "tags": {"archaeological_site": "tumulus", "historic": "archaeological_site"}}, {"type": "node", "id": 429261801, "lat": 51.1922739, "lon": -1.8064237, "tags": {"archaeological_site": "tumulus", "historic": "archaeological_site"}}, {"type": "node", "id": 429885909, "lat": 51.1720908, "lon": -1.8154635, "tags": {"archaeological_site": "tumulus", "historic": "archaeological_site"}}, {"type": "node", "id": 429885910, "lat": 51.1715795, "lon": -1.8160214, "tags": {"archaeological_site": "tumulus", "historic": "archaeological_site"}}, {"type": "node", "id": 429887881, "lat": 51.1531167, "lon": -1.8249325, "tags": {"archaeological_site": "tumulus", "historic": "archaeological_site"}}, {"type": "node", "id": 429887884, "lat": 51.1517085, "lon": -1.828909, "tags": {"archaeological_site": "tumulus", "historic": "archaeological_site"}}, {"type": "node", "id": 429887886, "lat": 51.1498601, "lon": -1.8569198, "tags": {"archaeological_site": "tumulus", "historic": "archaeological_site"}}, {"type": "node", "id": 429887890, "lat": 51.1869546, "lon": -1.8634575, "tags": {"archaeological_site": "tumulus", "historic": "archaeological_site"}}, {"type": "node", "id": 429887895, "lat": 51.1906261, "lon": -1.8726697, "tags": {"archaeological_site": "tumulus", "historic": "archaeological_site"}}, {"type": "node", "id": 429890627, "lat": 51.2212509, "lon": -1.8747296, "tags": {"archaeological_site": "tumulus", "historic": "archaeological_site"}}, {"type": "node", "id": 429890631, "lat": 51.2190737, "lon": -1.8378224, "tags": {"archaeological_site": "megalith", "historic": "archaeological_site", "megalith_type": "long_barrow"}}, {"type": "node", "id": 429890633, "lat": 51.2177297, "lon": -1.8371358, "tags": {"archaeological_site": "tumulus", "historic": "archaeological_site"}}, {"type": "node", "id": 429897670, "lat": 51.2166276, "lon": -1.8216863, "tags": {"archaeological_site": "tumulus", "historic": "archaeological_site"}}, {"type": "node", "id": 429897671, "lat": 51.2151962, "lon": -1.8166223, "tags": {"archaeological_site": "tumulus", "historic": "archaeological_site"}}, {"type": "node", "id": 429897673, "lat": 51.2071181, "lon": -1.8184178, "tags": {"archaeological_site": "megalith", "historic": "archaeological_site", "megalith_type": "long_barrow"}}, {"type": "node", "id": 429897674, "lat": 51.2169233, "lon": -1.7834916, "tags": {"archaeological_site": "tumulus", "historic": "archaeological_site"}}, {"type": "node", "id": 429897675, "lat": 51.2220824, "lon": -1.7360177, "tags": {"archaeological_site": "tumulus", "historic": "archaeological_site"}}, {"type": "node", "id": 429897676, "lat": 51.221266, "lon": -1.7323526, "tags": {"archaeological_site": "tumulus", "historic": "archaeological_site"}}, {"type": "node", "id": 429897678, "lat": 51.2210616, "lon": -1.7294931, "tags": {"archaeological_site": "tumulus", "historic": "archaeological_site"}}, {"type": "node", "id": 429897679, "lat": 51.2210316, "lon": -1.7288656, "tags": {"archaeological_site": "tumulus", "historic": "archaeological_site"}}, {"type": "node", "id": 429897680, "lat": 51.2209015, "lon": -1.7278733, "tags": {"archaeological_site": "tumulus", "historic": "archaeological_site"}}, {"type": "node", "id": 429897681, "lat": 51.2206915, "lon": -1.7273697, "tags": {"archaeological_site": "tumulus", "historic": "archaeological_site"}}, {"type": "node", "id": 429897682, "lat": 51.2198844, "lon": -1.7261886, "tags": {"archaeological_site": "tumulus", "historic": "archaeological_site"}}, {"type": "node", "id": 429897683, "lat": 51.2193097, "lon": -1.7252018, "tags": {"archaeological_site": "tumulus", "historic": "archaeological_site"}}, {"type": "node", "id": 429897684, "lat": 51.2193779, "lon": -1.7235289, "tags": {"archaeological_site": "tumulus", "historic": "archaeological_site"}}, {"type": "node", "id": 429897685, "lat": 51.2176891, "lon": -1.7265411, "tags": {"archaeological_site": "tumulus", "historic": "archaeological_site"}}, {"type": "node", "id": 429897686, "lat": 51.2182506, "lon": -1.722584, "tags": {"archaeological_site": "tumulus", "historic": "archaeological_site"}}, {"type": "node", "id": 429897688, "lat": 51.2165168, "lon": -1.7217713, "tags": {"archaeological_site": "tumulus", "historic": "archaeological_site"}}, {"type": "node", "id": 429897689, "lat": 51.2184203, "lon": -1.7199555, "tags": {"archaeological_site": "tumulus", "historic": "archaeological_site"}}, {"type": "node", "id": 429897690, "lat": 51.2259007, "lon": -1.72753, "tags": {"archaeological_site": "tumulus", "historic": "archaeological_site"}}, {"type": "node", "id": 429897691, "lat": 51.2256799, "lon": -1.7284168, "tags": {"archaeological_site": "tumulus", "historic": "archaeological_site"}}, {"type": "node", "id": 429897693, "lat": 51.2289375, "lon": -1.7217364, "tags": {"archaeological_site": "tumulus", "historic": "archaeological_site"}}, {"type": "node", "id": 429897694, "lat": 51.2302275, "lon": -1.7159536, "tags": {"archaeological_site": "tumulus", "historic": "archaeological_site"}}, {"type": "node", "id": 429897695, "lat": 51.2308724, "lon": -1.7158999, "tags": {"archaeological_site": "tumulus", "historic": "archaeological_site"}}, {"type": "node", "id": 429897696, "lat": 51.2278063, "lon": -1.7116888, "tags": {"archaeological_site": "tumulus", "historic": "archaeological_site"}}, {"type": "node", "id": 429897697, "lat": 51.2274401, "lon": -1.711265, "tags": {"archaeological_site": "tumulus", "historic": "archaeological_site"}}, {"type": "node", "id": 429897698, "lat": 51.2374289, "lon": -1.7042699, "tags": {"archaeological_site": "tumulus", "historic": "archaeological_site"}}, {"type": "node", "id": 429897699, "lat": 51.237617, "lon": -1.7048278, "tags": {"archaeological_site": "tumulus", "historic": "archaeological_site"}}, {"type": "node", "id": 429897700, "lat": 51.2429368, "lon": -1.7037549, "tags": {"archaeological_site": "tumulus", "historic": "archaeological_site"}}, {"type": "node", "id": 429897701, "lat": 51.2466441, "lon": -1.6902366, "tags": {"archaeological_site": "tumulus", "historic": "archaeological_site"}}, {"type": "node", "id": 429898151, "lat": 51.2451397, "lon": -1.7089047, "tags": {"archaeological_site": "tumulus", "historic": "archaeological_site"}}, {"type": "node", "id": 429898152, "lat": 51.2233206, "lon": -1.6912344, "tags": {"archaeological_site": "tumulus", "historic": "archaeological_site"}}, {"type": "node", "id": 429898153, "lat": 51.2233894, "lon": -1.6925433, "tags": {"archaeological_site": "tumulus", "historic": "archaeological_site"}}, {"type": "node", "id": 429898154, "lat": 51.2127834, "lon": -1.7297187, "tags": {"archaeological_site": "megalith", "historic": "archaeological_site", "megalith_type": "long_barrow"}}, {"type": "node", "id": 429898155, "lat": 51.203185, "lon": -1.7360701, "tags": {"archaeological_site": "tumulus", "historic": "archaeological_site"}}, {"type": "node", "id": 430039104, "lat": 51.8893324, "lon": -1.8621354, "tags": {"HE_ref": "1009157", "archaeological_site": "megalith", "description": "Long Barrow", "historic": "archaeological_site", "listed_status": "scheduled_monument", "megalith_type": "long_barrow", "name": "Notgrove Long Barrow", "source": "NPE", "source:name": "survey", "wikidata": "Q7062649", "wikipedia": "en:Notgrove Long Barrow"}}, {"type": "node", "id": 430039105, "lat": 51.8862846, "lon": -1.8394439, "tags": {"archaeological_site": "tumulus", "historic": "archaeological_site", "source": "NPE"}}, {"type": "node", "id": 430041196, "lat": 51.9110967, "lon": -1.5950692, "tags": {"historic": "archaeological_site", "name": "The Mount", "source": "NPE"}}, {"type": "node", "id": 431131149, "lat": 51.2368916, "lon": 0.5307372, "tags": {"historic": "archaeological_site", "name": "Quarry Wood Iron age Earthworks"}}, {"type": "node", "id": 431811214, "lat": 51.1755876, "lon": -1.816009, "tags": {"archaeological_site": "tumulus", "historic": "archaeological_site"}}, {"type": "node", "id": 434098759, "lat": 51.7164113, "lon": -2.2750439, "tags": {"archaeological_site": "tumulus", "historic": "archaeological_site", "source": "NPE"}}, {"type": "node", "id": 434137081, "lat": 51.5866395, "lon": -2.1604897, "tags": {"description": "Earthwork", "historic": "archaeological_site", "source": "NPE"}}, {"type": "node", "id": 435206391, "lat": 51.7010156, "lon": -2.1453844, "tags": {"historic": "archaeological_site", "name": "Devils Churchyard"}}, {"type": "node", "id": 440946917, "lat": 51.8286855, "lon": 0.660824, "tags": {"archaeological_site": "settlement", "historic": "archaeological_site", "historic:civilization": "ancient_roman"}}, {"type": "node", "id": 440973190, "lat": 51.76501, "lon": 0.7619057, "tags": {"archaeological_site": "tumulus", "historic": "archaeological_site"}}, {"type": "node", "id": 441000918, "lat": 51.7889659, "lon": -1.5810477, "tags": {"historic": "archaeological_site", "name": "Asthall Barrow", "source": "NPE", "wikidata": "Q17648985"}}, {"type": "node", "id": 441367001, "lat": 51.396246, "lon": -2.2765719, "tags": {"archaeological_site": "tumulus", "historic": "archaeological_site", "source": "NPE"}}, {"type": "node", "id": 441416517, "lat": 51.4853493, "lon": -2.3791496, "tags": {"description": "Ancient field system", "historic": "archaeological_site", "source": "NPE"}}, {"type": "node", "id": 441705169, "lat": 50.7942984, "lon": -3.4582785, "tags": {"HE_ref": "1017192", "archaeological_site": "fortification", "description": "Iron Age hillfort; scheduled monument.", "fortification_type": "hill_fort", "heritage": "2", "heritage:operator": "Historic England", "historic": "archaeological_site", "historic:period": "iron-age", "name": "Dolbury Hillfort", "ruins": "yes", "website": "https://new.devon.gov.uk/historicenvironment/explore-devons-heritage/dolbury-hillfort/", "wheelchair": "no", "wikidata": "Q5288888", "wikipedia": "en:Dolbury"}}, {"type": "node", "id": 442163083, "lat": 51.7498198, "lon": 0.782293, "tags": {"archaeological_site": "tumulus", "historic": "archaeological_site"}}, {"type": "node", "id": 442163084, "lat": 51.7504575, "lon": 0.7816922, "tags": {"archaeological_site": "tumulus", "historic": "archaeological_site"}}, {"type": "node", "id": 442174632, "lat": 51.7284434, "lon": 0.7216502, "tags": {"archaeological_site": "tumulus", "historic": "archaeological_site"}}, {"type": "node", "id": 442176121, "lat": 51.7348376, "lon": 0.7089405, "tags": {"archaeological_site": "tumulus", "historic": "archaeological_site"}}, {"type": "node", "id": 442177210, "lat": 51.734997, "lon": 0.7103996, "tags": {"archaeological_site": "tumulus", "historic": "archaeological_site"}}, {"type": "node", "id": 442351423, "lat": 51.7608797, "lon": -1.8963204, "tags": {"archaeological_site": "tumulus", "historic": "archaeological_site", "name": "Bansley Wold Tump"}}, {"type": "node", "id": 442351424, "lat": 51.7738933, "lon": -1.9029294, "tags": {"archaeological_site": "megalith", "historic": "archaeological_site", "megalith_type": "long_barrow", "source": "NPE"}}, {"type": "node", "id": 442351425, "lat": 51.7753272, "lon": -1.9019423, "tags": {"archaeological_site": "tumulus", "historic": "archaeological_site", "source": "NPE"}}, {"type": "node", "id": 442351433, "lat": 51.7938031, "lon": -1.9355501, "tags": {"description": "Long Barrow", "historic": "archaeological_site", "source": "NPE"}}, {"type": "node", "id": 443265229, "lat": 53.2388263, "lon": -3.8831268, "tags": {"archaeological_site": "fortification", "fortification_type": "hill_fort", "historic": "archaeological_site"}}, {"type": "node", "id": 443394713, "lat": 50.8367536, "lon": -3.5446033, "tags": {"historic": "archaeological_site", "name": "Cadbury Castle", "wikidata": "Q5016260", "wikipedia": "en:Cadbury Castle, Devon"}}, {"type": "node", "id": 443446372, "lat": 52.3852796, "lon": 0.0216432, "tags": {"historic": "archaeological_site", "name": "Site of Romano-British Village"}}, {"type": "node", "id": 444686395, "lat": 50.2514366, "lon": -4.7787277, "tags": {"archaeological_site": "tumulus", "historic": "archaeological_site"}}, {"type": "node", "id": 444761641, "lat": 50.265902, "lon": -5.1364867, "tags": {"archaeological_site": "tumulus", "historic": "archaeological_site"}}, {"type": "node", "id": 444761643, "lat": 50.2461465, "lon": -5.1002661, "tags": {"archaeological_site": "tumulus", "historic": "archaeological_site"}}, {"type": "node", "id": 444761644, "lat": 50.2472991, "lon": -5.1184622, "tags": {"archaeological_site": "tumulus", "historic": "archaeological_site"}}, {"type": "node", "id": 444761645, "lat": 50.2429903, "lon": -5.0924126, "tags": {"archaeological_site": "tumulus", "historic": "archaeological_site"}}, {"type": "node", "id": 444767678, "lat": 50.2107581, "lon": -5.2239911, "tags": {"archaeological_site": "tumulus", "description": "Bowl Barrow", "historic": "archaeological_site", "historic:civilization": "prehistoric", "tumulus": "round_barrow", "website": "https://historicengland.org.uk/listing/the-list/list-entry/1007305"}}, {"type": "node", "id": 444767682, "lat": 50.2019687, "lon": -5.2339474, "tags": {"archaeological_site": "tumulus", "historic": "archaeological_site"}}, {"type": "node", "id": 444767686, "lat": 50.1840336, "lon": -5.2608155, "tags": {"archaeological_site": "megalith", "historic": "archaeological_site", "megalith_type": "long_barrow", "name": "Hangman's Barrow"}}, {"type": "node", "id": 444767697, "lat": 50.139809, "lon": -5.5759548, "tags": {"archaeological_site": "well", "historic": "archaeological_site", "name": "Madron Well"}}, {"type": "node", "id": 444767705, "lat": 50.1250686, "lon": -5.6348154, "tags": {"archaeological_site": "tumulus", "historic": "archaeological_site"}}, {"type": "node", "id": 444767708, "lat": 50.1258709, "lon": -5.634667, "tags": {"archaeological_site": "tumulus", "historic": "archaeological_site"}}, {"type": "node", "id": 444767712, "lat": 50.123722, "lon": -5.6343083, "tags": {"archaeological_site": "tumulus", "historic": "archaeological_site"}}, {"type": "node", "id": 444767716, "lat": 50.1226997, "lon": -5.6343071, "tags": {"archaeological_site": "tumulus", "historic": "archaeological_site"}}, {"type": "node", "id": 444767719, "lat": 50.1254326, "lon": -5.6186406, "tags": {"archaeological_site": "tumulus", "historic": "archaeological_site"}}, {"type": "node", "id": 445091023, "lat": 51.2150675, "lon": -2.1811129, "tags": {"archaeological_site": "tumulus", "historic": "archaeological_site"}}, {"type": "node", "id": 445091052, "lat": 51.2094757, "lon": -2.1733882, "tags": {"archaeological_site": "tumulus", "historic": "archaeological_site"}}, {"type": "node", "id": 445091070, "lat": 51.2218145, "lon": -2.1810271, "tags": {"archaeological_site": "tumulus", "historic": "archaeological_site"}}, {"type": "node", "id": 445091081, "lat": 51.2226746, "lon": -2.1821429, "tags": {"archaeological_site": "megalith", "historic": "archaeological_site", "megalith_type": "long_barrow"}}, {"type": "node", "id": 445091098, "lat": 51.2241259, "lon": -2.1943309, "tags": {"archaeological_site": "tumulus", "historic": "archaeological_site"}}, {"type": "node", "id": 445098700, "lat": 51.2348754, "lon": -2.1404292, "tags": {"archaeological_site": "tumulus", "historic": "archaeological_site"}}, {"type": "node", "id": 445098702, "lat": 51.2301191, "lon": -2.140043, "tags": {"archaeological_site": "tumulus", "historic": "archaeological_site"}}, {"type": "node", "id": 445098707, "lat": 51.2380998, "lon": -2.1557929, "tags": {"archaeological_site": "tumulus", "historic": "archaeological_site"}}, {"type": "node", "id": 445098710, "lat": 51.243903, "lon": -2.158797, "tags": {"archaeological_site": "tumulus", "historic": "archaeological_site"}}, {"type": "node", "id": 445098712, "lat": 51.2458373, "lon": -2.1549775, "tags": {"archaeological_site": "tumulus", "historic": "archaeological_site"}}, {"type": "node", "id": 445098715, "lat": 51.2461865, "lon": -2.1538188, "tags": {"archaeological_site": "tumulus", "historic": "archaeological_site"}}, {"type": "node", "id": 445098724, "lat": 51.2492489, "lon": -2.1490981, "tags": {"archaeological_site": "tumulus", "historic": "archaeological_site"}}, {"type": "node", "id": 445098726, "lat": 51.2498936, "lon": -2.1503426, "tags": {"archaeological_site": "tumulus", "historic": "archaeological_site"}}, {"type": "node", "id": 445098727, "lat": 51.2512635, "lon": -2.1473386, "tags": {"archaeological_site": "tumulus", "historic": "archaeological_site"}}, {"type": "node", "id": 445098729, "lat": 51.2405985, "lon": -2.1214606, "tags": {"archaeological_site": "tumulus", "historic": "archaeological_site"}}, {"type": "node", "id": 445098731, "lat": 51.2354128, "lon": -2.1245934, "tags": {"archaeological_site": "tumulus", "historic": "archaeological_site"}}, {"type": "node", "id": 445098732, "lat": 51.2328332, "lon": -2.1021058, "tags": {"archaeological_site": "tumulus", "historic": "archaeological_site"}}, {"type": "node", "id": 445098734, "lat": 51.2305759, "lon": -2.0938661, "tags": {"archaeological_site": "tumulus", "historic": "archaeological_site"}}, {"type": "node", "id": 445098735, "lat": 51.2361114, "lon": -2.0916345, "tags": {"archaeological_site": "tumulus", "historic": "archaeological_site"}}, {"type": "node", "id": 445098737, "lat": 51.2351979, "lon": -2.0856692, "tags": {"archaeological_site": "tumulus", "historic": "archaeological_site"}}, {"type": "node", "id": 445098738, "lat": 51.2359771, "lon": -2.0857551, "tags": {"archaeological_site": "tumulus", "historic": "archaeological_site"}}, {"type": "node", "id": 445098740, "lat": 51.2386371, "lon": -2.1100881, "tags": {"archaeological_site": "tumulus", "historic": "archaeological_site"}}, {"type": "node", "id": 445098741, "lat": 51.2385028, "lon": -2.1103885, "tags": {"archaeological_site": "tumulus", "historic": "archaeological_site"}}, {"type": "node", "id": 445098742, "lat": 51.2483893, "lon": -2.1046378, "tags": {"archaeological_site": "tumulus", "historic": "archaeological_site"}}, {"type": "node", "id": 445098744, "lat": 51.2553999, "lon": -2.0911624, "tags": {"archaeological_site": "tumulus", "historic": "archaeological_site"}}, {"type": "node", "id": 445098745, "lat": 51.2595091, "lon": -2.0773866, "tags": {"archaeological_site": "tumulus", "historic": "archaeological_site"}}, {"type": "node", "id": 445098747, "lat": 51.2681023, "lon": -2.1077706, "tags": {"archaeological_site": "tumulus", "historic": "archaeological_site"}}, {"type": "node", "id": 445098748, "lat": 51.2689884, "lon": -2.108586, "tags": {"archaeological_site": "tumulus", "historic": "archaeological_site"}}, {"type": "node", "id": 445098750, "lat": 51.2706145, "lon": -2.0889096, "tags": {"archaeological_site": "megalith", "historic": "archaeological_site", "megalith_type": "long_barrow"}}, {"type": "node", "id": 445098755, "lat": 51.220027, "lon": -2.0844419, "tags": {"archaeological_site": "megalith", "historic": "archaeological_site", "megalith_type": "long_barrow"}}, {"type": "node", "id": 445098756, "lat": 51.222137, "lon": -2.0739533, "tags": {"archaeological_site": "tumulus", "historic": "archaeological_site"}}, {"type": "node", "id": 445098758, "lat": 51.1969185, "lon": -2.109101, "tags": {"archaeological_site": "megalith", "historic": "archaeological_site", "megalith_type": "long_barrow"}}, {"type": "node", "id": 445098761, "lat": 51.1915935, "lon": -2.1221043, "tags": {"archaeological_site": "tumulus", "historic": "archaeological_site"}}, {"type": "node", "id": 445098763, "lat": 51.1905983, "lon": -2.122276, "tags": {"archaeological_site": "tumulus", "historic": "archaeological_site"}}, {"type": "node", "id": 445099634, "lat": 51.1865906, "lon": -2.1169545, "tags": {"archaeological_site": "tumulus", "historic": "archaeological_site"}}, {"type": "node", "id": 445099638, "lat": 51.1887424, "lon": -2.1503426, "tags": {"archaeological_site": "tumulus", "historic": "archaeological_site"}}, {"type": "node", "id": 445099639, "lat": 51.1887693, "lon": -2.153218, "tags": {"archaeological_site": "tumulus", "historic": "archaeological_site"}}, {"type": "node", "id": 445101431, "lat": 51.2929502, "lon": -1.749426, "tags": {"archaeological_site": "tumulus", "historic": "archaeological_site"}}, {"type": "node", "id": 445101439, "lat": 51.2929234, "lon": -1.748439, "tags": {"archaeological_site": "tumulus", "historic": "archaeological_site"}}, {"type": "node", "id": 445101445, "lat": 51.2927892, "lon": -1.7476236, "tags": {"archaeological_site": "tumulus", "historic": "archaeological_site"}}, {"type": "node", "id": 445101456, "lat": 51.2985051, "lon": -1.7697679, "tags": {"archaeological_site": "tumulus", "historic": "archaeological_site"}}, {"type": "node", "id": 445104801, "lat": 51.2932973, "lon": -1.698329, "tags": {"archaeological_site": "tumulus", "historic": "archaeological_site"}}, {"type": "node", "id": 445104802, "lat": 51.2956857, "lon": -1.6874285, "tags": {"archaeological_site": "tumulus", "historic": "archaeological_site"}}, {"type": "node", "id": 445104804, "lat": 51.2929484, "lon": -1.6966982, "tags": {"archaeological_site": "tumulus", "historic": "archaeological_site"}}, {"type": "node", "id": 445104805, "lat": 51.29319, "lon": -1.6968699, "tags": {"archaeological_site": "tumulus", "historic": "archaeological_site"}}, {"type": "node", "id": 445104806, "lat": 51.3202064, "lon": -1.7078562, "tags": {"archaeological_site": "tumulus", "historic": "archaeological_site"}}, {"type": "node", "id": 445104808, "lat": 51.3186239, "lon": -1.6999598, "tags": {"archaeological_site": "tumulus", "historic": "archaeological_site"}}, {"type": "node", "id": 445104809, "lat": 51.3195627, "lon": -1.7135639, "tags": {"archaeological_site": "tumulus", "historic": "archaeological_site"}}, {"type": "node", "id": 445104810, "lat": 51.3190262, "lon": -1.7148085, "tags": {"archaeological_site": "tumulus", "historic": "archaeological_site"}}, {"type": "node", "id": 445104811, "lat": 51.3196699, "lon": -1.7148943, "tags": {"archaeological_site": "tumulus", "historic": "archaeological_site"}}, {"type": "node", "id": 445104813, "lat": 51.3194554, "lon": -1.715538, "tags": {"archaeological_site": "tumulus", "historic": "archaeological_site"}}, {"type": "node", "id": 445107950, "lat": 51.3124277, "lon": -1.7169542, "tags": {"archaeological_site": "tumulus", "historic": "archaeological_site"}}, {"type": "node", "id": 445107954, "lat": 51.3085379, "lon": -1.7341204, "tags": {"archaeological_site": "tumulus", "historic": "archaeological_site"}}, {"type": "node", "id": 445107957, "lat": 51.3080818, "lon": -1.7333908, "tags": {"archaeological_site": "tumulus", "historic": "archaeological_site"}}, {"type": "node", "id": 445107960, "lat": 51.3083232, "lon": -1.7327042, "tags": {"archaeological_site": "tumulus", "historic": "archaeological_site"}}, {"type": "node", "id": 445107962, "lat": 51.3090476, "lon": -1.7327042, "tags": {"archaeological_site": "tumulus", "historic": "archaeological_site"}}, {"type": "node", "id": 445107964, "lat": 51.3095037, "lon": -1.7331333, "tags": {"archaeological_site": "tumulus", "historic": "archaeological_site"}}, {"type": "node", "id": 445107966, "lat": 51.3158344, "lon": -1.7484541, "tags": {"archaeological_site": "tumulus", "historic": "archaeological_site"}}, {"type": "node", "id": 445111000, "lat": 51.2983959, "lon": -1.7560072, "tags": {"archaeological_site": "tumulus", "historic": "archaeological_site"}}, {"type": "node", "id": 445344820, "lat": 51.4333736, "lon": -1.8385399, "tags": {"archaeological_site": "tumulus", "historic": "archaeological_site"}}, {"type": "node", "id": 445344829, "lat": 51.4313402, "lon": -1.8360937, "tags": {"archaeological_site": "tumulus", "historic": "archaeological_site"}}, {"type": "node", "id": 445344835, "lat": 51.4319824, "lon": -1.8330467, "tags": {"archaeological_site": "tumulus", "historic": "archaeological_site"}}, {"type": "node", "id": 445344840, "lat": 51.4351929, "lon": -1.833433, "tags": {"archaeological_site": "tumulus", "historic": "archaeological_site"}}, {"type": "node", "id": 445344842, "lat": 51.4372384, "lon": -1.8422786, "tags": {"archaeological_site": "tumulus", "historic": "archaeological_site", "wikidata": "Q17648611"}}, {"type": "node", "id": 445357945, "lat": 51.4376847, "lon": -1.8397778, "tags": {"archaeological_site": "tumulus", "historic": "archaeological_site", "wikidata": "Q17648489"}}, {"type": "node", "id": 445357946, "lat": 51.4378987, "lon": -1.839177, "tags": {"archaeological_site": "tumulus", "historic": "archaeological_site", "wikidata": "Q17648489"}}, {"type": "node", "id": 445357947, "lat": 51.4379255, "lon": -1.8383616, "tags": {"archaeological_site": "tumulus", "historic": "archaeological_site", "wikidata": "Q17648489"}}, {"type": "node", "id": 445357948, "lat": 51.4378184, "lon": -1.8372887, "tags": {"archaeological_site": "tumulus", "historic": "archaeological_site", "wikidata": "Q17648489"}}, {"type": "node", "id": 445357949, "lat": 51.4385675, "lon": -1.8246287, "tags": {"archaeological_site": "tumulus", "historic": "archaeological_site"}}, {"type": "node", "id": 445357950, "lat": 51.4389688, "lon": -1.8243283, "tags": {"archaeological_site": "tumulus", "historic": "archaeological_site"}}, {"type": "node", "id": 445357951, "lat": 51.4392898, "lon": -1.8244141, "tags": {"archaeological_site": "tumulus", "historic": "archaeological_site"}}, {"type": "node", "id": 445358474, "lat": 51.438193, "lon": -1.8199509, "tags": {"archaeological_site": "tumulus", "historic": "archaeological_site"}}, {"type": "node", "id": 445358476, "lat": 51.4405367, "lon": -1.8199731, "tags": {"archaeological_site": "tumulus", "historic": "archaeological_site"}}, {"type": "node", "id": 445358480, "lat": 51.442473, "lon": -1.8236846, "tags": {"archaeological_site": "tumulus", "historic": "archaeological_site"}}, {"type": "node", "id": 445358484, "lat": 51.4430348, "lon": -1.8225258, "tags": {"archaeological_site": "tumulus", "historic": "archaeological_site"}}, {"type": "node", "id": 445361006, "lat": 51.1849166, "lon": -1.8519746, "tags": {"archaeological_site": "tumulus", "historic": "archaeological_site"}}, {"type": "node", "id": 445363158, "lat": 51.177564, "lon": -1.8919035, "tags": {"archaeological_site": "tumulus", "historic": "archaeological_site"}}, {"type": "node", "id": 445363162, "lat": 51.1697841, "lon": -1.8524754, "tags": {"archaeological_site": "megalith", "historic": "archaeological_site", "megalith_type": "long_barrow"}}, {"type": "node", "id": 445363478, "lat": 51.2007024, "lon": -1.8774624, "tags": {"archaeological_site": "tumulus", "historic": "archaeological_site"}}, {"type": "node", "id": 445416451, "lat": 51.1886067, "lon": -1.7866988, "tags": {"archaeological_site": "megalith", "historic": "archaeological_site", "megalith_type": "long_barrow"}}, {"type": "node", "id": 445416452, "lat": 51.1864189, "lon": -1.7671866, "tags": {"archaeological_site": "megalith", "historic": "archaeological_site", "megalith_type": "long_barrow"}}, {"type": "node", "id": 445416456, "lat": 51.2221214, "lon": -1.7283653, "tags": {"archaeological_site": "tumulus", "historic": "archaeological_site"}}, {"type": "node", "id": 445420934, "lat": 51.2004472, "lon": -1.7189411, "tags": {"archaeological_site": "tumulus", "historic": "archaeological_site"}}, {"type": "node", "id": 445420935, "lat": 51.2009743, "lon": -1.7180399, "tags": {"archaeological_site": "tumulus", "historic": "archaeological_site"}}, {"type": "node", "id": 445420936, "lat": 51.2006516, "lon": -1.7214474, "tags": {"archaeological_site": "tumulus", "historic": "archaeological_site"}}, {"type": "node", "id": 445420937, "lat": 51.2003074, "lon": -1.7204775, "tags": {"archaeological_site": "tumulus", "historic": "archaeological_site"}}, {"type": "node", "id": 445420938, "lat": 51.2005093, "lon": -1.717013, "tags": {"archaeological_site": "tumulus", "historic": "archaeological_site"}}, {"type": "node", "id": 445420939, "lat": 51.2000981, "lon": -1.7195252, "tags": {"historic": "archaeological_site"}}, {"type": "node", "id": 445422420, "lat": 51.200103, "lon": -1.7189411, "tags": {"archaeological_site": "tumulus", "historic": "archaeological_site"}}, {"type": "node", "id": 445422421, "lat": 51.2003666, "lon": -1.7180742, "tags": {"archaeological_site": "tumulus", "historic": "archaeological_site"}}, {"type": "node", "id": 445422422, "lat": 51.2009044, "lon": -1.7173962, "tags": {"archaeological_site": "tumulus", "historic": "archaeological_site"}}, {"type": "node", "id": 445422423, "lat": 51.1976774, "lon": -1.7163662, "tags": {"archaeological_site": "tumulus", "historic": "archaeological_site"}}, {"type": "node", "id": 445452716, "lat": 51.1844791, "lon": -1.7615653, "tags": {"archaeological_site": "tumulus", "historic": "archaeological_site"}}, {"type": "node", "id": 445816914, "lat": 51.3311335, "lon": 0.0528395, "tags": {"historic": "archaeological_site", "name": "The Wormstone", "url": "https://en.wikipedia.org/wiki/Wormstone"}}, {"type": "node", "id": 446782657, "lat": 51.5511344, "lon": -1.0607, "tags": {"historic": "archaeological_site", "name": "The Devil's Churchyard (Enclosure)", "note": "This appears on historic maps, and was difficult to find on the ground. Dated to mid-late Iron Age.", "source": "GPS"}}, {"type": "node", "id": 446825585, "lat": 51.5623748, "lon": -1.3428091, "tags": {"archaeological_site": "earthwork", "historic": "archaeological_site", "name": "Scutchamer Knob (Earthwork)", "source": "NPE", "wikidata": "Q7439556", "wikipedia": "en:Scutchamer Knob"}}, {"type": "node", "id": 447567044, "lat": 51.1554005, "lon": -1.8319646, "tags": {"archaeological_site": "tumulus", "historic": "archaeological_site"}}, {"type": "node", "id": 447574121, "lat": 51.1804456, "lon": -1.7437657, "tags": {"archaeological_site": "tumulus", "historic": "archaeological_site"}}, {"type": "node", "id": 447584457, "lat": 51.0553197, "lon": -1.8800443, "tags": {"access": "private", "archaeological_site": "tumulus", "historic": "archaeological_site"}}, {"type": "node", "id": 447584458, "lat": 51.055023, "lon": -1.8784135, "tags": {"access": "private", "archaeological_site": "tumulus", "historic": "archaeological_site"}}, {"type": "node", "id": 447584459, "lat": 51.0586669, "lon": -1.8831807, "tags": {"access": "private", "archaeological_site": "megalith", "historic": "archaeological_site", "megalith_type": "long_barrow", "name": "Neale's Barrow"}}, {"type": "node", "id": 447584460, "lat": 51.0624137, "lon": -1.9062227, "tags": {"archaeological_site": "megalith", "historic": "archaeological_site", "megalith_type": "long_barrow", "name": "Lyons Borrow"}}, {"type": "node", "id": 447584461, "lat": 51.0628992, "lon": -1.9122737, "tags": {"archaeological_site": "tumulus", "historic": "archaeological_site"}}, {"type": "node", "id": 447584462, "lat": 51.0628452, "lon": -1.9114154, "tags": {"archaeological_site": "tumulus", "historic": "archaeological_site"}}, {"type": "node", "id": 447584463, "lat": 51.0628182, "lon": -1.9106859, "tags": {"archaeological_site": "tumulus", "historic": "archaeological_site"}}, {"type": "node", "id": 447584464, "lat": 51.0650838, "lon": -1.9074243, "tags": {"archaeological_site": "tumulus", "historic": "archaeological_site"}}, {"type": "node", "id": 447584465, "lat": 51.0597435, "lon": -1.9388383, "tags": {"archaeological_site": "tumulus", "historic": "archaeological_site"}}, {"type": "node", "id": 447584466, "lat": 51.0467408, "lon": -1.939525, "tags": {"archaeological_site": "tumulus", "historic": "archaeological_site"}}, {"type": "node", "id": 447584467, "lat": 51.0460393, "lon": -1.9355768, "tags": {"archaeological_site": "tumulus", "historic": "archaeological_site"}}, {"type": "node", "id": 447584468, "lat": 51.0474693, "lon": -1.9179815, "tags": {"archaeological_site": "tumulus", "historic": "archaeological_site"}}, {"type": "node", "id": 447584469, "lat": 51.0454997, "lon": -1.9192689, "tags": {"archaeological_site": "tumulus", "historic": "archaeological_site"}}, {"type": "node", "id": 448024394, "lat": 52.0169085, "lon": 0.6623477, "tags": {"historic": "archaeological_site", "name": "Gestingthorpe Roman Villa (site of)"}}, {"type": "node", "id": 448309026, "lat": 52.144793, "lon": 1.2182191, "tags": {"historic": "archaeological_site", "is_in:country_code": "GB", "is_in:county": "Suffolk", "is_in:municipality": "Suffolk Coastal", "name": "castle mound"}}, {"type": "node", "id": 449777562, "lat": 51.2210834, "lon": -1.7299276, "tags": {"archaeological_site": "tumulus", "historic": "archaeological_site"}}, {"type": "node", "id": 449777566, "lat": 51.2213106, "lon": -1.7298629, "tags": {"archaeological_site": "tumulus", "historic": "archaeological_site"}}, {"type": "node", "id": 452314271, "lat": 51.8932929, "lon": -2.0148303, "tags": {"archaeological_site": "tumulus", "description": "Bowl barrow", "historic": "archaeological_site", "listed_status": "Scheduled Monument", "ref:he": "1017336", "source": "NPE"}}, {"type": "node", "id": 453045071, "lat": 51.1685071, "lon": -1.7398166, "tags": {"archaeological_site": "tumulus", "historic": "archaeological_site"}}, {"type": "node", "id": 453045073, "lat": 51.1684425, "lon": -1.7393532, "tags": {"archaeological_site": "tumulus", "historic": "archaeological_site"}}, {"type": "node", "id": 453045080, "lat": 51.1674953, "lon": -1.7410354, "tags": {"archaeological_site": "tumulus", "historic": "archaeological_site"}}, {"type": "node", "id": 453045083, "lat": 51.1676137, "lon": -1.7405634, "tags": {"archaeological_site": "tumulus", "historic": "archaeological_site"}}, {"type": "node", "id": 453045085, "lat": 51.1678613, "lon": -1.740469, "tags": {"archaeological_site": "tumulus", "historic": "archaeological_site"}}, {"type": "node", "id": 453045087, "lat": 51.1681034, "lon": -1.739851, "tags": {"archaeological_site": "tumulus", "historic": "archaeological_site"}}, {"type": "node", "id": 454128577, "lat": 50.6641414, "lon": -4.5669015, "tags": {"archaeological_site": "tumulus", "historic": "archaeological_site"}}, {"type": "node", "id": 454128614, "lat": 50.7251986, "lon": -4.4316324, "tags": {"archaeological_site": "tumulus", "historic": "archaeological_site"}}, {"type": "node", "id": 454128624, "lat": 50.7261766, "lon": -4.4504293, "tags": {"archaeological_site": "tumulus", "historic": "archaeological_site"}}, {"type": "node", "id": 454128627, "lat": 50.7257962, "lon": -4.4516309, "tags": {"archaeological_site": "tumulus", "historic": "archaeological_site"}}, {"type": "node", "id": 454128634, "lat": 50.7395949, "lon": -4.4938596, "tags": {"archaeological_site": "tumulus", "historic": "archaeological_site"}}, {"type": "node", "id": 454130113, "lat": 50.7742367, "lon": -4.3945535, "tags": {"archaeological_site": "tumulus", "historic": "archaeological_site"}}, {"type": "node", "id": 454130114, "lat": 50.7766792, "lon": -4.3997034, "tags": {"archaeological_site": "tumulus", "historic": "archaeological_site"}}, {"type": "node", "id": 454130115, "lat": 50.7793385, "lon": -4.388202, "tags": {"archaeological_site": "tumulus", "historic": "archaeological_site"}}, {"type": "node", "id": 456127136, "lat": 52.7055343, "lon": -3.9991312, "tags": {"fixme": "Add name", "historic": "archaeological_site", "note": "Remains of Dark Age house"}}, {"type": "node", "id": 460030912, "lat": 52.6743948, "lon": -2.6450873, "tags": {"alt_name:la": "Viroconium Cornoviorum", "archaeological_site": "settlement", "historic": "archaeological_site", "historic:civilization": "ancient_roman", "name": "Wroxeter Roman City/Viroconium", "name:en": "Wroxeter Roman City", "name:la": "Viroconium", "website": "https://www.pastscape.org.uk/hob.aspx?hob_id=69890", "wikidata": "Q1361580", "wikipedia": "en:Viroconium Cornoviorum"}}, {"type": "node", "id": 466485123, "lat": 51.6790827, "lon": -2.2029769, "tags": {"archaeological_site": "megalith", "historic": "archaeological_site", "megalith_type": "long_barrow", "source": "NPE"}}, {"type": "node", "id": 466485151, "lat": 51.6763992, "lon": -2.2535806, "tags": {"archaeological_site": "tumulus", "historic": "archaeological_site", "source": "NPE"}}, {"type": "node", "id": 466485174, "lat": 51.6583527, "lon": -2.2230249, "tags": {"archaeological_site": "tumulus", "historic": "archaeological_site", "source": "NPE"}}, {"type": "node", "id": 466485190, "lat": 51.6771709, "lon": -2.2634512, "tags": {"description": "Long Barrow", "historic": "archaeological_site", "source": "NPE"}}, {"type": "node", "id": 466485202, "lat": 51.6722209, "lon": -2.2847372, "tags": {"archaeological_site": "tumulus", "historic": "archaeological_site", "source": "NPE"}}, {"type": "node", "id": 466485311, "lat": 51.672568, "lon": -2.2038352, "tags": {"archaeological_site": "tumulus", "historic": "archaeological_site", "source": "NPE"}}, {"type": "node", "id": 466485327, "lat": 51.6760756, "lon": -2.2034919, "tags": {"archaeological_site": "tumulus", "historic": "archaeological_site", "source": "NPE"}}, {"type": "node", "id": 467560011, "lat": 52.2679042, "lon": 0.1640233, "tags": {"historic": "archaeological_site", "name": "Chamberlains Manor", "ruins": "yes"}}, {"type": "node", "id": 467560019, "lat": 52.2641642, "lon": 0.1583242, "tags": {"access": "yes", "historic": "archaeological_site", "historic:civilization": "medieval", "name": "Manor of Brays"}}, {"type": "node", "id": 469264573, "lat": 52.0289583, "lon": -3.1100667, "tags": {"historic": "archaeological_site", "name": "Pen-y-Beacon Stone Circle"}}, {"type": "node", "id": 470858747, "lat": 50.1244566, "lon": -5.6807465, "tags": {"historic": "archaeological_site", "name": "Plain-an-Gwarry", "name:kw": "Plen an Gwari"}}, {"type": "node", "id": 470881143, "lat": 50.1633519, "lon": -5.5800349, "tags": {"historic": "archaeological_site", "name": "Bodrifty Iron Age Village"}}, {"type": "node", "id": 471509074, "lat": 51.2539228, "lon": -0.2007062, "tags": {"addr:city": "Reigate", "addr:street": "Fort Lane", "historic": "archaeological_site", "name": "Reigate Fort", "source": "Surveys for Wheelmap", "toilets:wheelchair": "no", "tourism": "attraction", "website": "https://www.nationaltrust.org.uk/reigate-hill-and-gatton-park/features/reigate-fort-at-reigate-hill-and-gatton-park", "wheelchair": "limited", "wheelchair:description": "Level access via main gateway. Displays boards accessible across gravel or grass. Underground bunkers and ramparts via steps only."}}, {"type": "node", "id": 472082764, "lat": 51.4270649, "lon": -2.4026794, "tags": {"historic": "archaeological_site", "name": "Camp", "source": "NPE"}}, {"type": "node", "id": 477520178, "lat": 52.7812306, "lon": -1.2001022, "tags": {"historic": "archaeological_site", "name": "Site of Former Cold War Bunker"}}, {"type": "node", "id": 479158785, "lat": 50.6668762, "lon": -1.3776436, "tags": {"historic": "archaeological_site", "name": "Gallibury Hump", "note": "Unspectacular saxon remains, fenced off."}}, {"type": "node", "id": 479591214, "lat": 51.998564, "lon": -1.8665854, "tags": {"archaeological_site": "tumulus", "historic": "archaeological_site", "source": "NPE"}},